FID,名称,经度,纬度,X,Y,Brand,Ak,Pk
0,西华赵记胡辣汤,113.525242,34.944905,730705.1314,3871395.648,Others,5,4
1,逍遥镇优质胡辣汤,113.780607,34.865051,754287.5427,3863152.459,Xiaoyaozhen,10,7
2,逍遥镇滋补胡辣汤,113.752795,34.875321,751712.1057,3864221.972,Xiaoyaozhen,10,7
3,逍遥镇正宗牛肉胡辣汤,113.621866,34.647582,740397.0119,3838626.74,Xiaoyaozhen,10,7
4,万团结胡辣汤,113.593396,34.609042,737896.0624,3834282.18,Others,5,4
5,牛肉胡辣汤馆,113.593669,34.640701,737830.681,3837796.162,Others,5,4
6,逍遥老杨家胡辣汤,113.546533,34.626822,733546.3757,3836145.659,Xiaoyaozhen,10,7
7,穆彦华逍遥镇胡辣汤,113.546952,34.629144,733578.2985,3836404.31,Xiaoyaozhen,10,7
8,逍遥镇刘记牛肉胡辣汤,113.546926,34.627776,733579.7508,3836252.438,Xiaoyaozhen,10,7
9,逍遥镇优质胡辣汤,113.548195,34.643853,733651.031,3838039.496,Xiaoyaozhen,10,7
10,魏家金汤胡辣汤店,113.729508,34.665394,750215.6455,3840865.801,Others,5,4
11,逍遥镇一品牛肉胡辣汤,113.780954,34.657438,754957.4291,3840111.965,Xiaoyaozhen,10,7
12,张大辉胡辣汤,113.791488,34.708718,755765.5497,3845829.837,Others,5,4
13,逍遥镇胡辣汤,113.810418,34.654038,757669.9844,3839809.661,Xiaoyaozhen,10,7
14,宋氏牛肉胡辣汤,113.811313,34.680708,757669.3884,3842771.844,Others,5,4
15,原生记逍遥镇胡辣汤,113.803721,34.69004,756944.4863,3843788.106,Xiaoyaozhen,10,7
16,正宗逍遥镇胡辣汤,113.803446,34.695336,756902.895,3844375.165,Xiaoyaozhen,10,7
17,逍遥镇老李牛肉胡辣汤,113.830081,34.73185,759230.2967,3848495.987,Xiaoyaozhen,10,7
18,老谷家优质胡辣汤,113.830077,34.733575,759224.538,3848687.423,Others,5,4
19,郑州东服务站逍遥镇胡辣汤,113.833329,34.793464,759334.9264,3855342.548,Xiaoyaozhen,10,7
20,赵卫胡辣汤,113.513558,34.663102,730421.0182,3840095.781,Others,5,4
21,逍遥三堂胡辣汤,113.510214,34.689402,730041.604,3843006.709,Xiaoyaozhen,10,7
22,逍遥镇胡辣汤,113.510693,34.686924,730092.3728,3842732.814,Xiaoyaozhen,10,7
23,北舞渡炖肉胡辣汤,113.581349,34.693207,736551.2827,3843593.967,Beiwudu,8,6
24,逍遥镇优质胡辣汤,113.581227,34.695518,736533.5192,3843850.143,Xiaoyaozhen,10,7
25,牛肉胡辣汤,113.580979,34.693417,736516.7703,3843616.401,Others,5,4
26,方中山胡辣汤,113.532269,34.71367,731995.4323,3845750.479,Fangzhongshan,9,10
27,春意源逍遥镇胡辣汤,113.531388,34.723245,731887.9451,3846811.02,Xiaoyaozhen,10,7
28,正宗逍遥镇胡辣汤豆沫馆,113.561476,34.861164,734254.1023,3862186.531,Xiaoyaozhen,10,7
29,冯记优质牛肉胡辣汤,113.56048,34.863003,734157.7774,3862388.288,Others,5,4
30,老何家胡辣汤,113.701346,34.889684,746963.4342,3865687.836,Others,5,4
31,姚记胡辣汤,113.549786,34.897707,733081.4985,3866214.672,Others,5,4
32,胡辣汤豆沫馆,113.550835,34.902128,733164.9062,3866707.746,Others,5,4
33,逍遥镇胡辣汤,113.549782,34.897654,733081.2826,3866208.781,Xiaoyaozhen,10,7
34,逍遥镇胡辣汤,113.579007,34.907443,735725.4312,3867363.614,Xiaoyaozhen,10,7
35,胡辣汤,113.76822,34.815556,753306.1766,3857627.965,Others,5,4
36,逍遥镇优质牛肉胡辣汤,113.757489,34.839936,752249.5409,3860306.656,Xiaoyaozhen,10,7
37,老丁牛肉胡辣汤,113.737633,34.851639,750397.1829,3861555.667,Others,5,4
38,正宗逍遥镇优质胡辣汤,113.741405,34.853015,750738.1015,3861717.815,Xiaoyaozhen,10,7
39,杨六山胡辣汤,113.501335,34.748943,729063.3309,3849593.877,Others,5,4
40,李记逍遥镇优质胡辣汤,113.5011,34.749524,729040.2004,3849657.817,Xiaoyaozhen,10,7
41,中州名镇逍遥镇优质牛肉胡辣汤,113.501196,34.749509,729049.0351,3849656.371,Xiaoyaozhen,10,7
42,雪海牛肉优质胡辣汤,113.60463,34.62925,738868.8693,3836551.33,Others,5,4
43,逍遥镇程老大牛肉胡辣汤,113.606376,34.631007,739023.9893,3836750.455,Xiaoyaozhen,10,7
44,陈鹏胡辣汤,113.61425,34.631656,739744.4031,3836841.191,Others,5,4
45,李记胡辣汤,113.588636,34.622713,737420.3494,3835788.081,Others,5,4
46,老郑家胡辣汤,113.588615,34.622563,737418.8505,3835771.385,Others,5,4
47,逍遥镇牛肉胡辣汤,113.591543,34.622577,737687.422,3835779.843,Xiaoyaozhen,10,7
48,韩记胡辣汤,113.591155,34.622659,737651.5933,3835788.027,Others,5,4
49,金汤胡辣汤,113.710154,34.655333,748471.039,3839701.293,Others,5,4
50,胡辣汤,113.703846,34.663507,747868.1956,3840592.877,Others,5,4
51,西华逍遥镇炖肉胡辣汤,113.735218,34.681979,750689.1996,3842720.61,Xiaoyaozhen,10,7
52,赵记炖肉胡辣汤,113.724809,34.680591,749739.1058,3842540.679,Others,5,4
53,正宗逍遥镇牛肉胡辣汤,113.724164,34.682337,749674.727,3842732.847,Xiaoyaozhen,10,7
54,刘记牛肉胡辣汤,113.703947,34.684551,747814.7075,3842928.559,Others,5,4
55,正宗王记逍遥牛肉胡辣汤,113.759794,34.654184,753026.8467,3839697.437,Xiaoyaozhen,10,7
56,逍遥镇牛肉胡辣汤,113.769282,34.664249,753866.2506,3840838.348,Xiaoyaozhen,10,7
57,方中山胡辣汤,113.796715,34.690175,756301.83,3843785.21,Fangzhongshan,9,10
58,德誉邻炖肉胡辣汤,113.79847,34.690779,756460.8455,3843856.718,Others,5,4
59,刘记优质胡辣汤,113.78453,34.691927,755179.4541,3843948.662,Others,5,4
60,逍遥镇胡辣汤,113.754299,34.711521,752348.7102,3846046.919,Xiaoyaozhen,10,7
61,艺木子木胡辣汤,113.761405,34.711485,753000.0495,3846060.787,Others,5,4
62,洪亮大骨胡辣汤,113.754906,34.711052,752405.765,3845996.393,Others,5,4
63,周口老式胡辣汤,113.740487,34.69535,751131.8216,3844217.668,Others,5,4
64,刘掌柜胡辣汤包子老店,113.736745,34.709565,750745.8881,3845785.91,Others,5,4
65,方秀华优质胡辣汤,113.735234,34.709232,750608.4154,3845745.186,Others,5,4
66,方一坤野山菌胡辣汤,113.737566,34.706047,750831.7598,3845397.53,Others,5,4
67,逍遥镇老杨家胡辣汤,113.736907,34.70953,750760.8406,3845782.43,Xiaoyaozhen,10,7
68,荆鑫胡辣汤,113.832409,34.724955,759465.1671,3847736.765,Others,5,4
69,联福胡辣汤豆沫馆,113.83469,34.723442,759678.9165,3847574.74,Others,5,4
70,郑一州牛肉胡辣汤,113.823972,34.743321,758634.779,3849753.33,Others,5,4
71,正宗超越逍遥镇牛排胡辣汤,113.80938,34.760106,757245.8763,3851578.7,Xiaoyaozhen,10,7
72,方俊礼胡辣汤,113.790037,34.75228,755498.3355,3850660.752,Others,5,4
73,群喜逍遥八百里胡辣汤,113.751942,34.7826,751916.5883,3853929.435,Xiaoyaozhen,10,7
74,家福逍遥镇胡辣汤,113.783184,34.773682,754804.7564,3853018.581,Xiaoyaozhen,10,7
75,晓军胡辣汤,113.59299,34.655943,737724.8524,3839486.034,Others,5,4
76,东洋逍遥炖肉胡辣汤,113.593272,34.656943,737747.8541,3839597.675,Xiaoyaozhen,10,7
77,老王家逍遥镇牛肉胡辣汤,113.59314,34.657196,737735.0265,3839625.44,Xiaoyaozhen,10,7
78,逍遥镇老方家胡辣汤,113.591997,34.668686,737597.3823,3840897.842,Xiaoyaozhen,10,7
79,正宗逍遥镇滋补胡辣汤,113.586281,34.675269,737054.5218,3841614.909,Xiaoyaozhen,10,7
80,李师傅逍遥镇胡辣汤店,113.511013,34.700875,730083.0614,3844281.728,Xiaoyaozhen,10,7
81,李大军逍遥胡辣汤,113.52385,34.70062,731260.2894,3844282.878,Xiaoyaozhen,10,7
82,逍遥胡辣汤豆沫馆,113.531896,34.694796,732013.9826,3843655.102,Xiaoyaozhen,10,7
83,马记快餐马记牛排胡辣汤,113.53033,34.706025,731839.0973,3844897.612,Others,5,4
84,逍遥镇刘荣辉胡辣汤,113.530553,34.709966,731848.5285,3845335.473,Xiaoyaozhen,10,7
85,逍遥镇老杨家优质胡辣汤,113.515403,34.714758,730446.8697,3845832.422,Xiaoyaozhen,10,7
86,杨六山胡辣汤,113.516832,34.71492,730577.3663,3845853.677,Others,5,4
87,霸气高老大牛排胡辣汤,113.529089,34.722672,731678.8965,3846742.13,Others,5,4
88,逍遥镇优质胡辣汤,113.517023,34.727546,730559.7861,3847255.266,Xiaoyaozhen,10,7
89,方俊英胡辣汤,113.642227,34.659176,742230.6044,3839962.204,Others,5,4
90,胡辣汤慢熬粥,113.631883,34.680786,741219.3534,3842335.555,Others,5,4
91,方永结胡辣汤,113.646372,34.680655,742548.0271,3842355.855,Others,5,4
92,清宴胡辣汤,113.646393,34.681973,742546.1054,3842502.173,Others,5,4
93,西华老于家胡辣汤,113.641829,34.680924,742130.7587,3842374.764,Others,5,4
94,逍遥镇李宁胡辣汤豆沫馆,113.646211,34.681186,742531.7175,3842414.395,Xiaoyaozhen,10,7
95,强仔逍遥镇胡辣汤,113.641951,34.683749,742133.7113,3842688.566,Xiaoyaozhen,10,7
96,刘记逍遥胡辣汤,113.641844,34.683689,742124.0772,3842681.65,Xiaoyaozhen,10,7
97,霸气高老大牛排胡辣汤,113.64549,34.682746,742461.0677,3842585.781,Others,5,4
98,方中山胡辣汤,113.625276,34.682485,740608.7335,3842508.28,Fangzhongshan,9,10
99,逍遥牛肉胡辣汤,113.609008,34.69047,739094.4114,3843355.632,Xiaoyaozhen,10,7
100,王记胡辣汤,113.68855,34.657129,746484.5095,3839847.493,Others,5,4
101,杨老大炖肉胡辣汤,113.696169,34.665836,747157.3181,3840832.464,Others,5,4
102,小喜哥牛肉胡辣汤,113.685426,34.677844,746136.6944,3842138.754,Others,5,4
103,方一坤野山菌胡辣汤,113.696907,34.688591,747157.3085,3843359.59,Others,5,4
104,糊八珍牛肉胡辣汤,113.697509,34.694986,747193.4613,3844070.778,Others,5,4
105,麦米谷胡辣汤,113.678263,34.708003,745390.8736,3845468.238,Others,5,4
106,牛排胡辣汤,113.624822,34.700116,740516.0607,3844463.818,Others,5,4
107,老晋家逍遥镇胡辣汤,113.622637,34.780894,740081.7963,3853423.089,Xiaoyaozhen,10,7
108,周口炖肉胡辣汤,113.633923,34.77783,741124.1193,3853110.113,Others,5,4
109,逍遥镇优质胡辣汤,113.62663,34.793696,740410.2283,3854853.387,Xiaoyaozhen,10,7
110,逍遥镇胡辣汤,113.535163,34.759487,732132.3537,3850841.666,Xiaoyaozhen,10,7
111,早典胡辣汤,113.538586,34.766794,732425.354,3851660.477,Others,5,4
112,逍遥镇优质胡辣汤,113.578899,34.748466,736169.3918,3849720.591,Xiaoyaozhen,10,7
113,方中山胡辣汤,113.578246,34.744224,736121.6591,3849248.297,Fangzhongshan,9,10
114,卢老四胡辣汤,113.587357,34.761041,736908.1912,3851136.037,Others,5,4
115,李兵胡辣汤,113.589264,34.760525,737084.3216,3851083.275,Others,5,4
116,西华逍遥镇胡辣汤,113.58702,34.763253,736871.0027,3851380.721,Xiaoyaozhen,10,7
117,糊八珍逍遥胡辣汤,113.560536,34.753173,734474.0404,3850199.923,Xiaoyaozhen,10,7
118,逍遥镇老杜家胡辣汤,113.578296,34.755089,736095.2913,3850454.165,Xiaoyaozhen,10,7
119,逍遥镇胡辣汤,113.576502,34.766673,735897.9928,3851735.492,Xiaoyaozhen,10,7
120,逍遥镇老严家胡辣汤,113.556282,34.788855,733983.5789,3854149.821,Xiaoyaozhen,10,7
121,李记逍遥镇胡辣汤早饭店,113.524371,34.772053,731108.9003,3852211.272,Xiaoyaozhen,10,7
122,老王家逍遥镇炖肉胡辣汤,113.523615,34.771116,731042.2856,3852105.549,Xiaoyaozhen,10,7
123,逍遥镇牛肉胡辣汤勾魂拌面,113.518633,34.788458,730537.7808,3854018.61,Xiaoyaozhen,10,7
124,逍遥镇胡辣汤,113.515904,34.788903,730286.693,3854061.726,Xiaoyaozhen,10,7
125,滋补牛肉胡辣汤,113.544683,34.772731,732967.0077,3852333.469,Others,5,4
126,逍遥镇刘记胡辣汤,113.542694,34.772795,732784.6918,3852335.957,Xiaoyaozhen,10,7
127,老王家正宗逍遥镇炖肉胡辣汤,113.54274,34.772995,732788.3419,3852358.258,Xiaoyaozhen,10,7
128,老赵家逍遥镇炖肉胡辣汤,113.541435,34.784538,732636.4093,3853636.217,Xiaoyaozhen,10,7
129,豫中牛肉胡辣汤,113.529753,34.790892,731549.0496,3854314.329,Others,5,4
130,老王家正宗逍遥镇滋补牛肉胡辣汤,113.524704,34.797367,731068.7283,3855021.25,Xiaoyaozhen,10,7
131,西华珍菌牛肉胡辣汤,113.524693,34.797595,731067.0846,3855046.527,Others,5,4
132,胡辣汤,113.516297,34.8122,730257.8295,3856648.003,Others,5,4
133,老李家逍遥镇炖肉胡辣汤,113.517598,34.810677,730381.1489,3856481.977,Xiaoyaozhen,10,7
134,方一坤野山菌胡辣汤,113.516524,34.811237,730281.2876,3856541.656,Others,5,4
135,逍遥镇胡辣汤,113.51146,34.81146,729817.1688,3856554.785,Xiaoyaozhen,10,7
136,方一坤野山菌胡辣汤,113.526743,34.828239,731169.0745,3858451.971,Others,5,4
137,胡辣汤,113.531199,34.825563,731584.3395,3858165.286,Others,5,4
138,北舞渡胡辣汤,113.540017,34.845857,732334.2309,3860437.837,Beiwudu,8,6
139,北舞渡胡辣汤,113.53024,34.839311,731458.0697,3859688.762,Beiwudu,8,6
140,北舞渡牛肉胡辣汤,113.510305,34.835614,729644.3463,3859232.623,Beiwudu,8,6
141,老张家牛肉粉丝汤烩面馆老张家逍遥镇胡辣汤,113.510093,34.835325,729625.7511,3859200.065,Xiaoyaozhen,10,7
142,逍遥镇胡辣汤,113.526609,34.829717,731152.6785,3858615.683,Xiaoyaozhen,10,7
143,逍遥镇胡辣汤,113.567317,34.827489,734884.1422,3858463.067,Xiaoyaozhen,10,7
144,逍遥胡辣汤,113.592261,34.858554,737077.6386,3861969.321,Xiaoyaozhen,10,7
145,周口陈国权胡辣汤,113.591319,34.858543,736991.4982,3861965.87,Others,5,4
146,方家味道胡辣汤,113.59695,34.868302,737478.5299,3863062.243,Others,5,4
147,北舞渡胡辣汤,113.59777,34.869179,737551.0083,3863161.516,Beiwudu,8,6
148,老丁家胡辣汤,113.546966,34.879031,732876.3904,3864135.505,Others,5,4
149,赵记胡辣汤,113.546983,34.878699,732878.8823,3864098.7,Others,5,4
150,正宗逍遥镇老宋家胡辣汤,113.53277,34.879326,731577.2857,3864135.31,Xiaoyaozhen,10,7
151,张老二胡辣汤,113.626074,34.839643,740225.794,3859951.168,Others,5,4
152,正宗逍遥镇胡辣汤豆沫馆,113.626286,34.839902,740244.4387,3859980.419,Xiaoyaozhen,10,7
153,逍遥镇胡辣汤,113.606786,34.846136,738442.2113,3860625.674,Xiaoyaozhen,10,7
154,咏春胡辣汤,113.607806,34.84549,738537.3988,3860556.411,Others,5,4
155,汤有金·牛肉胡辣汤·家常炒菜,113.697064,34.830531,746748.6257,3859112.417,Others,5,4
156,逍遥镇牛排胡辣汤,113.653601,34.83935,742745.3736,3859984.994,Xiaoyaozhen,10,7
157,逍遥胡辣汤,113.653513,34.857237,742684.7517,3861969.87,Xiaoyaozhen,10,7
158,老张家胡辣汤,113.678895,34.85385,745016.7762,3861655.779,Others,5,4
159,杨孝业特优滋补胡辣汤,113.697147,34.87378,746627.005,3863912.434,Others,5,4
160,范新建纯手工胡辣汤,113.608888,34.850297,738622.5043,3861092.459,Others,5,4
161,逍遥镇顺发胡辣汤,113.610903,34.857873,738784.9405,3861938.032,Xiaoyaozhen,10,7
162,正宗逍遥镇优质牛肉胡辣汤,113.60962,34.866736,738641.9475,3862918.574,Xiaoyaozhen,10,7
163,逍遥镇张振敏胡辣汤,113.633129,34.857263,740819.9375,3861923.552,Xiaoyaozhen,10,7
164,老刘家牛排胡辣汤,113.643755,34.855547,741797.0333,3861758.713,Others,5,4
165,八珍胡辣汤,113.646639,34.848712,742080.9065,3861007.136,Others,5,4
166,逍遥牛肉胡辣汤,113.640902,34.870022,741493.6794,3863358.255,Xiaoyaozhen,10,7
167,逍遥镇一品牛肉胡辣汤,113.637871,34.88057,741185.607,3864521.558,Xiaoyaozhen,10,7
168,西华逍遥胡辣汤,113.638132,34.880697,741209.1052,3864536.282,Xiaoyaozhen,10,7
169,老娄家牛肉胡辣汤,113.637878,34.881205,741184.3904,3864592.047,Others,5,4
170,圆茂源正宗逍遥镇优质胡辣汤,113.61371,34.872324,738999.8714,3863548.478,Xiaoyaozhen,10,7
171,王瑞胡辣汤砂锅烩面,113.622794,34.878099,739813.935,3864211.104,Others,5,4
172,胡辣汤,113.618861,34.881013,739445.7768,3864525.081,Others,5,4
173,李记逍遥镇牛肉胡辣汤,113.66071,34.891544,743241.9706,3865794.726,Xiaoyaozhen,10,7
174,李记优质牛肉胡辣汤,113.666221,34.888015,743756.3449,3865416.487,Others,5,4
175,逍遥镇赵记胡辣汤老店,113.665618,34.89624,743676.8918,3866327.832,Xiaoyaozhen,10,7
176,逍遥赵胡辣汤,113.665688,34.896277,743683.1831,3866332.109,Xiaoyaozhen,10,7
177,李学勤胡辣汤总店,113.665298,34.897321,743644.4366,3866447.023,Others,5,4
178,何记胡辣汤,113.665464,34.901818,743646.3216,3866946.507,Others,5,4
179,张记胡辣汤,113.668134,34.901353,743891.82,3866901.407,Others,5,4
180,慢熬粥胡辣汤总店,113.665274,34.897411,743641.9762,3866456.953,Others,5,4
181,逍遥镇胡辣汤,113.555884,34.900241,733631.8765,3866510.111,Xiaoyaozhen,10,7
182,逍遥镇牛羊肉胡辣汤,113.798265,34.81888,756045.9137,3858073.205,Xiaoyaozhen,10,7
183,正宗逍遥镇牛肉胡辣汤,113.736808,34.876659,750245.8267,3864330.383,Xiaoyaozhen,10,7
184,翟记胡辣汤,113.731307,34.878092,749738.3597,3864475.682,Others,5,4
185,二十六味胡辣汤,113.804216,34.833115,756546.3989,3859668.28,Others,5,4
186,正宗逍遥镇王记胡辣汤,113.820459,34.829043,758045.5412,3859258.059,Xiaoyaozhen,10,7
187,正宗逍遥镇胡辣汤,113.8048,34.862021,756510.0335,3862877.889,Xiaoyaozhen,10,7
188,逍遥镇一品牛肉胡辣汤,113.805342,34.864561,756551.7192,3863161.178,Xiaoyaozhen,10,7
189,胡辣汤,113.491037,34.753294,728108.0931,3850053.283,Others,5,4
190,于记优质牛肉胡辣汤,113.501385,34.760002,729037.348,3850821.246,Others,5,4
191,兄弟木勺胡辣汤豆沬馆,113.492363,34.810492,728071.933,3856403.762,Others,5,4
192,哲郅早饭逍遥胡辣汤,113.493107,34.810587,728139.7683,3856415.997,Xiaoyaozhen,10,7
193,逍遥镇胡辣汤,113.493095,34.810636,728138.5348,3856421.408,Xiaoyaozhen,10,7
194,全羊鲜汤烩面方书灿胡辣汤,113.50385,34.83542,729054.2446,3859196.321,Others,5,4
195,岳老大胡辣汤店,113.730366,34.684094,750238.0129,3842943.25,Others,5,4
196,照廷胡辣汤,113.730123,34.690964,750195.045,3843705.076,Others,5,4
197,胡辣汤营养粥,113.729921,34.690847,750176.8807,3843691.589,Others,5,4
198,逍遥镇一品胡辣汤,113.729053,34.691121,750096.4886,3843719.838,Xiaoyaozhen,10,7
199,胡辣汤,113.730056,34.691401,750187.5871,3843753.407,Others,5,4
200,老马家逍遥镇胡辣汤,113.753042,34.666442,752370.4283,3841040.878,Xiaoyaozhen,10,7
201,老马家逍遥镇胡辣汤,113.753066,34.666592,752372.1736,3841057.585,Xiaoyaozhen,10,7
202,逍遥镇炖肉胡辣汤,113.753439,34.667577,752403.3852,3841167.836,Xiaoyaozhen,10,7
203,他记炖肉胡辣汤,113.763122,34.668044,753289.8319,3841243.996,Others,5,4
204,方永结胡辣汤,113.760769,34.713457,752935.7534,3846278.041,Others,5,4
205,方团结胡辣汤,113.760849,34.713532,752942.8562,3846286.566,Others,5,4
206,逍遥优质胡辣汤,113.763478,34.717817,753170.7126,3846768.739,Xiaoyaozhen,10,7
207,方中山胡辣汤,113.759057,34.720656,752756.9321,3847072.686,Fangzhongshan,9,10
208,牛肉胡辣汤,113.763467,34.719947,753163.2058,3847005.102,Others,5,4
209,雅三牛肉胡辣汤,113.765947,34.712853,753412.1253,3846224.052,Others,5,4
210,逍遥镇牛肉胡辣汤,113.760142,34.726773,752837.7128,3847754.287,Xiaoyaozhen,10,7
211,逍遥镇胡辣汤,113.72037,34.702849,749265.3425,3844999.846,Xiaoyaozhen,10,7
212,小喜哥牛肉胡辣汤,113.71529,34.711071,748775.1024,3845899.735,Others,5,4
213,牛肉胡辣汤·碗蒸豆腐脑,113.706049,34.709421,747933.1462,3845693.787,Others,5,4
214,逍遥镇胡辣汤,113.745787,34.711091,751569.9329,3845977.859,Xiaoyaozhen,10,7
215,方中山胡辣汤,113.743909,34.71617,751382.4388,3846536.83,Fangzhongshan,9,10
216,逍遥镇胡辣汤,113.744373,34.713864,751431.9459,3846282.07,Xiaoyaozhen,10,7
217,张记逍遥镇胡辣汤,113.743141,34.720299,751299.5549,3846993.148,Xiaoyaozhen,10,7
218,潼关肉夹馍胡辣汤,113.73968,34.72332,750973.2681,3847319.77,Others,5,4
219,逍遥镇胡辣汤,113.702407,34.71241,747590.4559,3846016.526,Xiaoyaozhen,10,7
220,好姊妹胡辣汤手抓饼,113.712539,34.711707,748521.0845,3845963.513,Others,5,4
221,方中山胡辣汤,113.714885,34.712154,748734.7409,3846018.924,Fangzhongshan,9,10
222,珍菌胡辣汤豆沫馆,113.718588,34.711706,749075.4402,3845978.375,Others,5,4
223,任素华鲜牛肉胡辣汤,113.715017,34.715522,748736.7437,3846393.029,Others,5,4
224,北舞渡胡辣汤,113.719305,34.728021,749092.1665,3847790.786,Beiwudu,8,6
225,吴老大胡辣汤八宝粥,113.707956,34.722357,748069.244,3847134.121,Others,5,4
226,任记逍遥镇胡辣汤,113.70805,34.725236,748069.2488,3847453.862,Xiaoyaozhen,10,7
227,牛肉胡辣汤,113.705881,34.725118,747870.8592,3847435.414,Others,5,4
228,聚中原胡辣汤,113.708729,34.727647,748124.2531,3847723.11,Others,5,4
229,逍遥镇胡辣汤,113.706701,34.727171,747939.8586,3847665.278,Xiaoyaozhen,10,7
230,正宗逍遥镇老武家珍菌胡辣汤,113.705816,34.730387,747849.1598,3848020.004,Xiaoyaozhen,10,7
231,马记胡辣汤,113.809212,34.79197,757131.513,3855114.647,Others,5,4
232,逍遥镇老季胡辣汤,113.809589,34.794903,757156.9144,3855441.129,Xiaoyaozhen,10,7
233,胡辣汤亿轩食尚快餐店,113.809537,34.795247,757151.0844,3855479.174,Others,5,4
234,汤头王胡辣汤,113.807253,34.794597,756943.9944,3855401.181,Others,5,4
235,胡辣汤,113.800722,34.795052,756344.6438,3855434.966,Others,5,4
236,福满胡辣汤燕麦粥,113.720724,34.739577,749187.4587,3849076.789,Others,5,4
237,春意逍遥镇牛肉胡辣汤,113.720763,34.740127,749189.3787,3849137.925,Xiaoyaozhen,10,7
238,逍遥镇胡辣汤,113.732395,34.758371,750199.9367,3851191.575,Xiaoyaozhen,10,7
239,北舞渡胡辣汤,113.732509,34.75844,750210.1699,3851199.517,Beiwudu,8,6
240,逍遥镇胡辣汤,113.705791,34.751507,747783.7432,3850363.832,Xiaoyaozhen,10,7
241,豫东胡辣汤,113.702388,34.751123,747473.1774,3850312.823,Others,5,4
242,深夜胡辣汤,113.714883,34.765742,748573.8561,3851966.107,Others,5,4
243,青宴逍遥镇胡辣汤豆沫馆,113.702367,34.769824,747415.4013,3852388.204,Xiaoyaozhen,10,7
244,任逍遥牛肉胡辣汤,113.762364,34.732579,753023.5985,3848404.238,Xiaoyaozhen,10,7
245,逍遥镇牛肉胡辣汤,113.761302,34.733501,752923.4842,3848503.889,Xiaoyaozhen,10,7
246,姚有才胡辣汤总店,113.761976,34.740821,752962.9045,3849317.97,Others,5,4
247,逍遥镇胡辣汤,113.763007,34.738195,753065.3722,3849029.129,Xiaoyaozhen,10,7
248,春意源逍遥镇牛肉胡辣汤·粥·包子,113.762886,34.738216,753054.2226,3849031.155,Xiaoyaozhen,10,7
249,方永结胡辣汤,113.769284,34.73887,753638.3793,3849119.875,Others,5,4
250,方永结胡辣汤中式快餐店,113.775599,34.749198,754185.2586,3850282.061,Others,5,4
251,高老六牛排胡辣汤,113.766434,34.748281,753348.5139,3850157.13,Others,5,4
252,姚辰奎胡辣汤,113.762205,34.758924,752928.6321,3851327.645,Others,5,4
253,豫膳煌胡辣汤,113.752671,34.762128,752045.6413,3851659.251,Others,5,4
254,姚有才胡辣汤,113.733659,34.776002,750262.4326,3853151.429,Others,5,4
255,姚有才胡辣汤,113.731793,34.776578,750089.8178,3853210.702,Others,5,4
256,方团结胡辣汤,113.748091,34.783888,751560.053,3854062.717,Others,5,4
257,手抓饼胡辣汤八宝粥豆腐脑,113.728112,34.788476,749716.8465,3854521.986,Others,5,4
258,方中山胡辣汤,113.60285,34.72259,738437.6794,3846905.554,Fangzhongshan,9,10
259,高老大胡辣汤,113.603203,34.724226,738465.3223,3847087.948,Others,5,4
260,北舞渡胡辣汤,113.600058,34.729262,738162.6984,3847639.365,Beiwudu,8,6
261,周口陶老二胡辣汤,113.59462,34.729392,737664.0901,3847640.915,Others,5,4
262,郭记逍遥镇胡辣汤,113.594723,34.729418,737673.4525,3847644.044,Xiaoyaozhen,10,7
263,逍遥镇牛肉胡辣汤,113.526526,34.706357,731489.5537,3844925.69,Xiaoyaozhen,10,7
264,逍遥镇正宗王记风味胡辣汤,113.528916,34.706748,731707.4934,3844974.586,Xiaoyaozhen,10,7
265,逍遥镇陈氏胡辣汤,113.511655,34.703012,730135.9787,3844520.347,Xiaoyaozhen,10,7
266,逍遥牛肉胡辣汤,113.622853,34.684979,740379.3935,3842779.262,Xiaoyaozhen,10,7
267,方永结胡辣汤,113.622533,34.682708,740356.6279,3842526.471,Others,5,4
268,兴远阁逍遥镇胡辣汤,113.622897,34.684817,740383.8957,3842761.389,Xiaoyaozhen,10,7
269,联红蒸碗豆腐脑牛肉胡辣汤,113.625756,34.689628,740632.0487,3843302.132,Others,5,4
270,正宗逍遥镇胡辣汤,113.653906,34.657853,743305.4385,3839843.55,Xiaoyaozhen,10,7
271,老岳家杭州小笼包胡辣汤,113.668236,34.685243,744538.9389,3842917.954,Others,5,4
272,方一坤野山菌胡辣汤,113.668014,34.691439,744500.3519,3843605.032,Others,5,4
273,豫川周口胡辣汤,113.661391,34.687777,743904.0077,3843182.551,Others,5,4
274,方永结胡辣汤,113.663238,34.688819,744070.2586,3843302.67,Others,5,4
275,何记逍遥镇胡辣汤,113.660829,34.689455,743847.5646,3843367.408,Xiaoyaozhen,10,7
276,天祥特优胡辣汤,113.665091,34.701029,744204.216,3844662.205,Others,5,4
277,孟记胡辣汤,113.676602,34.699845,745262.7457,3844558.825,Others,5,4
278,高老大一品胡辣汤,113.665483,34.700658,744241.2357,3844621.984,Others,5,4
279,马记逍遥镇胡辣汤,113.670234,34.697546,744685.8562,3844288.172,Xiaoyaozhen,10,7
280,张华胡辣汤店,113.677457,34.710464,745309.7337,3845739.389,Others,5,4
281,逍遥镇高进胡辣汤,113.67375,34.710691,744969.3395,3845755.54,Xiaoyaozhen,10,7
282,逍遥镇胡辣汤碗蒸豆腐脑,113.674065,34.706974,745009.1776,3845343.802,Xiaoyaozhen,10,7
283,老李家牛排胡辣汤,113.659417,34.7103,743656.9608,3845677.312,Others,5,4
284,美食·正宗逍遥镇胡辣汤,113.661592,34.708672,743861.0685,3845501.914,Xiaoyaozhen,10,7
285,方俊英胡辣汤,113.662286,34.710371,743919.6782,3845692.149,Others,5,4
286,高掌门逍遥胡辣汤,113.656593,34.710745,743396.8542,3845719.855,Xiaoyaozhen,10,7
287,正宗牛肉胡辣汤,113.655704,34.710264,743316.7933,3845664.323,Others,5,4
288,胡辣汤豆沫馆,113.654525,34.709277,743211.6372,3845551.935,Others,5,4
289,德誉邻炖肉胡辣汤,113.688535,34.696764,746365.616,3844246.074,Others,5,4
290,方永结胡辣汤,113.687995,34.697203,746314.8178,3844293.471,Others,5,4
291,神鞭胡辣汤,113.680798,34.701296,745643.0412,3844730.098,Others,5,4
292,御宴逍遥镇胡辣汤,113.681947,34.699841,745752.658,3844571.433,Xiaoyaozhen,10,7
293,方中山胡辣汤,113.697458,34.706889,747153.3551,3845391.633,Fangzhongshan,9,10
294,真一味胡辣汤,113.690019,34.710634,746460.4634,3845788.983,Others,5,4
295,逍遥镇优质胡辣汤,113.695549,34.707954,746975.2297,3845505.133,Xiaoyaozhen,10,7
296,任记逍遥镇胡辣汤,113.691563,34.71029,746602.9841,3845754.594,Xiaoyaozhen,10,7
297,逍遥镇老武家珍菌胡辣汤豆沫馆,113.694465,34.710892,746867.1464,3845828.526,Xiaoyaozhen,10,7
298,王记逍遥镇牛肉胡辣汤,113.680979,34.711795,745628.5654,3845895.702,Xiaoyaozhen,10,7
299,好兄弟逍遥镇胡辣汤店,113.680281,34.712436,745562.7024,3845965.133,Xiaoyaozhen,10,7
300,清真回族逍遥镇老方家胡辣汤,113.687007,34.713585,746175.6787,3846109.1,Xiaoyaozhen,10,7
301,方一坤野山菌胡辣汤,113.678015,34.720937,745329.9099,3846903.027,Others,5,4
302,谢向伟胡辣汤黄焖鸡,113.697029,34.714893,747090.2104,3846278.853,Others,5,4
303,北舞渡黄焖鸡胡辣汤,113.697129,34.714629,747100.1604,3846249.8,Beiwudu,8,6
304,老武家珍菌胡辣汤,113.697181,34.715939,747101.0252,3846395.311,Others,5,4
305,逍遥镇胡辣汤,113.690735,34.718936,746501.4214,3846712.085,Xiaoyaozhen,10,7
306,逍遥镇拜记胡辣汤,113.696662,34.722059,747035.2446,3847073.226,Xiaoyaozhen,10,7
307,杨三菌胡辣汤店,113.684413,34.722144,745912.5977,3847052.616,Others,5,4
308,李大辉胡辣汤,113.686489,34.721673,746104.2214,3847005.427,Others,5,4
309,逍遥镇胡辣汤,113.660512,34.713049,743749.238,3845985.044,Xiaoyaozhen,10,7
310,方华中胡辣汤·慢熬粥,113.664944,34.714961,744149.7655,3846207.991,Others,5,4
311,冯庄胡辣汤包子老店,113.667875,34.715293,744417.381,3846251.959,Others,5,4
312,高群生胡辣汤,113.667499,34.715549,744382.1711,3846279.455,Others,5,4
313,朱记优质牛肉胡辣汤,113.671389,34.713782,744743.8544,3846092.822,Others,5,4
314,牛肉胡辣汤,113.677391,34.715063,745290.0934,3846249.617,Others,5,4
315,逍遥镇胡辣汤,113.666322,34.722831,744252.8777,3847084.736,Xiaoyaozhen,10,7
316,逍遥镇胡辣汤,113.620276,34.705495,740083.8482,3845049.895,Xiaoyaozhen,10,7
317,逍遥胡辣汤,113.621091,34.711251,740141.8906,3845690.622,Xiaoyaozhen,10,7
318,何师傅优质胡辣汤,113.636065,34.700788,741544.5748,3844565.345,Others,5,4
319,北舞渡胡辣汤,113.636049,34.701745,741540.3246,3844671.512,Beiwudu,8,6
320,御宴逍遥镇胡辣汤,113.648394,34.701338,742672.9673,3844656.07,Xiaoyaozhen,10,7
321,代贯辉秘制胡辣汤沅江路店,113.646036,34.701531,742456.2852,3844671.8,Others,5,4
322,方中山胡辣汤,113.647785,34.705789,742604.1449,3845148.56,Fangzhongshan,9,10
323,逍遥镇老吕家胡辣汤,113.650727,34.70633,742872.1921,3845215.702,Xiaoyaozhen,10,7
324,杨孝业特优滋补胡辣汤,113.648179,34.705696,742640.5262,3845139.19,Others,5,4
325,杨八妹胡辣汤,113.639702,34.706061,741862.5591,3845159.27,Others,5,4
326,逍遥镇一品胡辣汤,113.63867,34.706105,741767.8503,3845161.671,Xiaoyaozhen,10,7
327,穆彦华牛排胡辣汤,113.636384,34.712002,741541.1848,3845810.607,Others,5,4
328,赵记胡辣汤·碳锅鱼,113.636156,34.718182,741502.3072,3846495.897,Others,5,4
329,李记逍遥胡辣汤,113.613991,34.718391,739470.6336,3846466.054,Xiaoyaozhen,10,7
330,德益成珍菌胡辣汤,113.608747,34.719852,738985.8998,3846615.708,Others,5,4
331,邢记北舞渡胡辣汤,113.620658,34.712664,740098.1226,3845846.397,Beiwudu,8,6
332,老吴家胡辣汤,113.620609,34.711989,740095.5847,3845771.371,Others,5,4
333,逍遥镇牛肉胡辣汤,113.606829,34.722813,738801.6283,3846939.749,Xiaoyaozhen,10,7
334,李四良胡辣汤,113.61398,34.727407,739443.6058,3847466.591,Others,5,4
335,逍遥镇周老大牛排胡辣汤,113.625052,34.732874,740442.2169,3848099.742,Xiaoyaozhen,10,7
336,方秀华周口优质胡辣汤,113.607023,34.741882,738764.5055,3849056.418,Others,5,4
337,方秀华优质胡辣汤,113.607136,34.741961,738774.6296,3849065.454,Others,5,4
338,胡辣汤老店,113.609243,34.744817,738959.4148,3849387.414,Others,5,4
339,周口周老大优质胡辣汤,113.605646,34.74248,738636.6409,3849119.51,Others,5,4
340,周口胡辣汤,113.609639,34.749377,738982.5439,3849894.409,Others,5,4
341,北舞渡胡辣汤,113.605612,34.747251,738619.7939,3849648.898,Beiwudu,8,6
342,李逍遥胡辣汤,113.628498,34.734633,740752.8261,3848303.203,Xiaoyaozhen,10,7
343,方中山胡辣汤,113.632601,34.738755,741116.7418,3848770.491,Fangzhongshan,9,10
344,五月斋胡辣汤,113.640614,34.746154,741829.2441,3849610.877,Others,5,4
345,方中山胡辣汤,113.640078,34.755136,741753.9451,3850606.388,Fangzhongshan,9,10
346,西华逍遥程党生胡辣汤,113.638007,34.755232,741563.975,3850612.058,Xiaoyaozhen,10,7
347,胡辣汤手工馍,113.633504,34.756271,741148.5064,3850716.539,Others,5,4
348,周普查逍遥镇胡辣汤,113.650276,34.755248,742687.6902,3850643.419,Xiaoyaozhen,10,7
349,加工饭馍菜粥胡辣汤,113.647143,34.755562,742399.8086,3850670.698,Others,5,4
350,逍遥风味胡辣汤,113.648216,34.757166,742493.3945,3850851.297,Xiaoyaozhen,10,7
351,逍遥镇胡辣汤,113.643583,34.756413,742071.2506,3850756.551,Xiaoyaozhen,10,7
352,方一坤野山菌胡辣汤,113.644178,34.755492,742128.439,3850655.775,Others,5,4
353,西华老程记胡辣汤,113.644042,34.765248,742087.4754,3851738.148,Others,5,4
354,张华青优质胡辣汤,113.646567,34.763517,742323.7847,3851552.137,Others,5,4
355,方中山胡辣汤,113.651452,34.76958,742753.4067,3852236.801,Fangzhongshan,9,10
356,小喜哥牛肉胡辣汤,113.651456,34.76922,742754.8281,3852196.858,Others,5,4
357,胡辣汤豆沫馆,113.650845,34.76971,742697.438,3852249.76,Others,5,4
358,齐中杰胡辣汤,113.65123,34.769496,742733.3226,3852226.942,Others,5,4
359,老马家新派牛肉胡辣汤,113.630792,34.764739,740875.4893,3851649.787,Others,5,4
360,周口优质胡辣汤,113.636286,34.765099,741377.5963,3851702.935,Others,5,4
361,逍遥镇常家胡辣汤,113.637614,34.766049,741496.4483,3851811.558,Xiaoyaozhen,10,7
362,贾记胡辣汤,113.636094,34.766044,741357.2591,3851807.347,Others,5,4
363,逍遥镇优质胡辣汤,113.620938,34.752917,740007.2741,3850314.214,Xiaoyaozhen,10,7
364,杨孝业特优滋补胡辣汤,113.619643,34.761141,739864.8516,3851223.796,Others,5,4
365,逍遥镇老朱家胡辣汤,113.613978,34.769808,739320.9753,3852172.113,Xiaoyaozhen,10,7
366,老陈逍遥胡辣汤,113.615213,34.769953,739433.6534,3852191.15,Xiaoyaozhen,10,7
367,逍遥镇胡辣汤,113.616138,34.769922,739518.4514,3852189.917,Xiaoyaozhen,10,7
368,肖老大胡辣汤,113.661346,34.732614,743768.1772,3848158.35,Others,5,4
369,黄记正宗逍遥胡辣汤,113.666043,34.731447,744201.9484,3848040.245,Xiaoyaozhen,10,7
370,逍遥镇炖肉胡辣汤,113.665633,34.732063,744162.5706,3848107.611,Xiaoyaozhen,10,7
371,陈记逍遥镇胡辣汤,113.672045,34.734154,744743.867,3848355.269,Xiaoyaozhen,10,7
372,顺兴斋逍遥镇胡辣汤,113.671989,34.734096,744738.9076,3848348.696,Xiaoyaozhen,10,7
373,老朱逍遥镇胡辣汤,113.675493,34.737507,745049.8569,3848735.786,Xiaoyaozhen,10,7
374,顺城老店胡辣汤豆沫,113.675489,34.73697,745051.0773,3848676.18,Others,5,4
375,严记逍遥镇胡辣汤,113.672585,34.737374,744783.8359,3848713.935,Xiaoyaozhen,10,7
376,老方胡辣汤,113.67584,34.737666,745081.177,3848754.278,Others,5,4
377,高老七牛排胡辣汤,113.654776,34.749982,743115.3092,3850069.894,Others,5,4
378,优质胡辣汤,113.679397,34.731491,745425.321,3848077.669,Others,5,4
379,逍遥镇胡辣汤,113.679332,34.731576,745419.1142,3848086.943,Xiaoyaozhen,10,7
380,逍遥镇娃子胡辣汤,113.695541,34.74338,746869.0539,3849436.657,Xiaoyaozhen,10,7
381,逍遥老胡家胡辣汤,113.6854,34.744081,745937.978,3849489.574,Xiaoyaozhen,10,7
382,怼一碗胡辣汤,113.696332,34.750868,746919.2098,3850269.615,Others,5,4
383,清真回族豫东优质胡辣汤,113.699967,34.755064,747239.657,3850744.23,Others,5,4
384,牛犇胡辣汤,113.70029,34.761594,747249.7559,3851469.723,Others,5,4
385,逍遥镇白记胡辣汤,113.659135,34.754857,743500.2692,3850621.474,Xiaoyaozhen,10,7
386,宋氏老式胡辣汤,113.657719,34.755308,743369.2471,3850668.092,Others,5,4
387,方中山胡辣汤,113.662574,34.788401,743716.5307,3854352.487,Fangzhongshan,9,10
388,牛犇深夜胡辣汤,113.684385,34.792536,745701.2177,3854864.591,Others,5,4
389,志强逍遥胡辣汤农科路总店,113.686185,34.79213,745867.22,3854823.943,Xiaoyaozhen,10,7
390,方中山胡辣汤,113.685876,34.792134,745838.918,3854823.63,Fangzhongshan,9,10
391,王姐开封白胡辣汤,113.687569,34.794743,745986.1629,3855117.326,Others,5,4
392,高伟逍遥镇胡辣汤,113.700684,34.791415,747196.7976,3854780.226,Xiaoyaozhen,10,7
393,牛牛包胡辣汤,113.699895,34.792458,747121.4461,3854894.034,Others,5,4
394,杨孝业特优滋补胡辣汤,113.691811,34.800513,746357.3411,3855768.092,Others,5,4
395,逍遥镇胡辣汤,113.688149,34.800335,746022.6339,3855739.348,Xiaoyaozhen,10,7
396,逍遥胡辣汤,113.68485,34.805564,745705.0957,3856311.574,Xiaoyaozhen,10,7
397,逍遥镇牛肉胡辣汤,113.688818,34.808582,746059.3434,3856656.241,Xiaoyaozhen,10,7
398,春意源逍遥镇牛肉胡辣汤广电路,113.68949,34.805549,746129.8811,3856321.288,Xiaoyaozhen,10,7
399,胡辣汤饺子店,113.685112,34.806046,745727.6469,3856365.708,Others,5,4
400,十三品牛肉胡辣汤,113.659484,34.790534,743427.3449,3854581.703,Others,5,4
401,朱记逍遥镇胡辣汤豆沫,113.667998,34.790277,744207.6026,3854573.874,Xiaoyaozhen,10,7
402,杨孝业特优滋补胡辣汤,113.673304,34.801565,744660.0168,3855839.538,Others,5,4
403,逍遥镇胡辣汤,113.671818,34.804739,744514.6017,3856188.162,Xiaoyaozhen,10,7
404,逍遥镇优质牛肉胡辣汤,113.675083,34.80809,744803.5599,3856568.021,Xiaoyaozhen,10,7
405,正宗逍遥镇眼镜哥胡辣汤,113.677176,34.807093,744998.0978,3856462.486,Xiaoyaozhen,10,7
406,路记逍遥镇胡辣汤,113.653899,34.805271,742872.7479,3856203.659,Xiaoyaozhen,10,7
407,家和兴陕西肉丸胡辣汤,113.656238,34.805815,743085.2576,3856269.699,Others,5,4
408,刘记逍遥镇胡辣汤,113.609112,34.771955,738869.1713,3852398.79,Xiaoyaozhen,10,7
409,李幸福胡辣汤,113.611948,34.778515,739109.9336,3853133.553,Others,5,4
410,逍遥镇高兴家胡辣汤,113.611904,34.778318,739106.4735,3853111.585,Xiaoyaozhen,10,7
411,白华伟胡辣汤,113.625581,34.773017,740374.2278,3852555.966,Others,5,4
412,胡辣汤,113.624462,34.774306,740268.0173,3852696.337,Others,5,4
413,杜记炖肉胡辣汤,113.618916,34.776295,739754.4009,3852903.808,Others,5,4
414,逍遥镇胡辣汤,113.604044,34.781726,738376.944,3853471.095,Xiaoyaozhen,10,7
415,逍遥镇高国强胡辣汤,113.613199,34.780523,739218.6824,3853359.376,Xiaoyaozhen,10,7
416,老王家逍遥镇胡辣汤,113.609355,34.78511,738853.473,3853859.272,Xiaoyaozhen,10,7
417,逍遥镇朱家胡辣汤,113.606638,34.786356,738601.1141,3853991.085,Xiaoyaozhen,10,7
418,逍遥镇胡辣汤,113.650742,34.774975,742672.5774,3852833.812,Xiaoyaozhen,10,7
419,西华逍遥镇优质胡辣汤,113.630465,34.783783,740790.1622,3853762.461,Xiaoyaozhen,10,7
420,秀秀家牛肉胡辣汤,113.633843,34.783584,741100.0371,3853748.488,Others,5,4
421,逊母口炖肉胡辣汤,113.64051,34.782471,741713.7308,3853641.009,Others,5,4
422,逍遥镇荆记胡辣汤,113.629226,34.78568,740671.202,3853970.013,Xiaoyaozhen,10,7
423,牛排胡辣汤正商恒钻店,113.630497,34.785008,740789.5289,3853898.485,Others,5,4
424,逍遥镇牛排胡辣汤,113.630608,34.784891,740800.0325,3853885.767,Xiaoyaozhen,10,7
425,逍遥镇牛排胡辣汤,113.633892,34.794507,741072.7065,3854960.818,Xiaoyaozhen,10,7
426,正宗逍遥镇马记胡辣汤,113.646927,34.790386,742278.1253,3854534.88,Xiaoyaozhen,10,7
427,正宗逍遥镇老李家优质胡辣汤五香豆沫馆,113.647035,34.790444,742287.8434,3854541.578,Xiaoyaozhen,10,7
428,阿芳家胡辣汤,113.650377,34.793724,742584.2044,3854913.664,Others,5,4
429,小喜哥牛肉胡辣汤,113.604349,34.792661,738373.3781,3854685.354,Others,5,4
430,方中山胡辣汤,113.604964,34.791638,738432.6294,3854573.286,Fangzhongshan,9,10
431,牛肉胡辣汤,113.613584,34.792777,739218.5185,3854720.211,Others,5,4
432,嘻再来胡辣汤,113.60553,34.797693,738466.9984,3855246.598,Others,5,4
433,王永峰胡辣汤,113.604063,34.796289,738336.7451,3855087.3,Others,5,4
434,正宗逍遥镇牛肉胡辣汤,113.605748,34.797755,738486.7767,3855253.997,Xiaoyaozhen,10,7
435,逍遥镇高伟胡辣汤,113.625189,34.808846,740234.3067,3856531.25,Xiaoyaozhen,10,7
436,逍遥镇喜利来胡辣汤,113.626493,34.804883,740365.183,3856094.568,Xiaoyaozhen,10,7
437,逍遥镇胡辣汤,113.626519,34.806931,740361.6117,3856321.914,Xiaoyaozhen,10,7
438,王奎卤香大骨头优质胡辣汤,113.607167,34.802149,738604.0073,3855745.006,Others,5,4
439,许三周口优质牛肉胡辣汤,113.605233,34.805894,738416.1739,3856156.017,Others,5,4
440,正宗逍遥镇老容家炖肉胡辣汤,113.548414,34.76448,733331.9023,3851426.48,Xiaoyaozhen,10,7
441,宋记逍遥镇尚佳胡辣汤,113.548987,34.764053,733385.5811,3851380.426,Xiaoyaozhen,10,7
442,张铭胡辣汤,113.550795,34.766566,733544.076,3851663.51,Others,5,4
443,正宗北舞渡马记牛肉胡辣汤,113.523384,34.761479,731048.0079,3851035.558,Beiwudu,8,6
444,郭记老汤砂锅逍遥镇炖肉胡辣汤,113.525564,34.764145,731240.2195,3851336.434,Xiaoyaozhen,10,7
445,刘记逍遥镇优质胡辣汤,113.523509,34.765755,731047.5312,3851510.372,Xiaoyaozhen,10,7
446,穆艳华牛排胡辣汤,113.52313,34.766832,731009.8195,3851629.019,Others,5,4
447,大宋逍遥胡辣汤,113.523127,34.766753,731009.7651,3851620.245,Xiaoyaozhen,10,7
448,逍遥镇胡辣汤,113.589908,34.732276,737224.1245,3847949.834,Xiaoyaozhen,10,7
449,孔记逍遥镇胡辣汤,113.585885,34.740719,736831.4349,3848877.311,Xiaoyaozhen,10,7
450,逍遥胡辣汤,113.588564,34.736111,737090.0275,3848372.254,Xiaoyaozhen,10,7
451,方一坤野山菌胡辣汤,113.583546,34.744613,736606.0511,3849303.939,Others,5,4
452,老王家牛排胡辣汤,113.587568,34.747835,736965.272,3849670.985,Others,5,4
453,非胡辣汤,113.58766,34.747879,736973.5734,3849676.085,Others,5,4
454,方有道优质胡辣汤,113.581134,34.755284,736354.6736,3850482.482,Others,5,4
455,苏家包子胡辣汤,113.580239,34.755258,736272.773,3850477.49,Others,5,4
456,张记胡辣汤老店,113.579277,34.755425,736184.1856,3850493.76,Others,5,4
457,王常辉胡辣汤,113.596759,34.756025,737783.6746,3850601.605,Others,5,4
458,方友诚精品胡辣汤,113.593003,34.761126,737425.041,3851158.807,Others,5,4
459,小喜哥牛肉胡辣汤,113.598906,34.760571,737967.2662,3851111.191,Others,5,4
460,闫国响周口优质胡辣汤,113.60308,34.761653,738346.4361,3851241.169,Others,5,4
461,侯一明胡辣汤,113.571112,34.783473,735356.6308,3853587.234,Others,5,4
462,丁记胡辣汤,113.571349,34.782017,735382.4702,3853426.209,Others,5,4
463,魏国强胡辣汤,113.571311,34.781459,735380.5772,3853364.195,Others,5,4
464,新亚逍遥胡辣汤,113.579122,34.781493,736095.6773,3853386.318,Xiaoyaozhen,10,7
465,方一坤野山菌胡辣汤,113.579031,34.783722,736080.9889,3853633.47,Others,5,4
466,逍遥镇国生胡辣汤,113.576924,34.788394,735874.7583,3854146.995,Xiaoyaozhen,10,7
467,胡辣汤店,113.57114,34.785557,735353.2697,3853818.574,Others,5,4
468,逍遥镇牛肉胡辣汤,113.571263,34.786813,735360.9603,3853958.248,Xiaoyaozhen,10,7
469,逍遥镇老马家炖肉胡辣汤,113.571226,34.786171,735359.398,3853886.915,Xiaoyaozhen,10,7
470,李国荣胡辣汤店,113.595039,34.774765,737572.3893,3852677.232,Others,5,4
471,逊母口原滋味优质胡辣汤,113.594519,34.772935,737530.0212,3852472.914,Others,5,4
472,方秀华周口优质胡辣汤,113.600952,34.773642,738117.0763,3852566.618,Others,5,4
473,陈记逍遥镇牛肉胡辣汤,113.597367,34.778328,737775.3349,3853078.155,Xiaoyaozhen,10,7
474,钱记优质牛肉胡辣汤,113.602558,34.800531,738186.7548,3855554.49,Others,5,4
475,杨记牛肉胡辣汤,113.602335,34.808975,738142.0304,3856491.052,Others,5,4
476,刘师傅逍遥镇优质牛肉胡辣汤,113.602174,34.808687,738128.1228,3856458.708,Xiaoyaozhen,10,7
477,高群生胡辣汤,113.555166,34.793861,733867.2586,3854702.763,Others,5,4
478,北舞渡贾品轩炖肉胡辣汤,113.568926,34.794394,735125.4547,3854794.078,Beiwudu,8,6
479,汇四方优质胡辣汤,113.573498,34.802515,735520.8966,3855706.041,Others,5,4
480,豫中牛肉胡辣汤,113.573491,34.802528,735520.2188,3855707.468,Others,5,4
481,孙记逍遥镇胡辣汤,113.574127,34.804638,735572.4293,3855943.122,Xiaoyaozhen,10,7
482,方大同胡辣汤,113.575061,34.806775,735651.8369,3856182.472,Others,5,4
483,手擀面家常菜优质牛肉胡辣汤,113.557728,34.801567,734080.0053,3855563.918,Others,5,4
484,妥记胡辣汤店,113.55191,34.787455,733587.2552,3853984.268,Others,5,4
485,闪长雨北舞渡炖肉胡辣汤,113.548037,34.787021,733233.8835,3853927.095,Beiwudu,8,6
486,任记逍遥镇牛肉胡辣汤,113.547685,34.788164,733198.4357,3854053.121,Xiaoyaozhen,10,7
487,老李家逍遥牛肉胡辣汤,113.534274,34.7932,731956.4843,3854580.903,Xiaoyaozhen,10,7
488,逍遥镇胡辣汤,113.536341,34.789959,732154.8065,3854226.014,Xiaoyaozhen,10,7
489,曹运洪胡辣汤,113.53647,34.791267,732162.9478,3854371.468,Others,5,4
490,老马胡辣汤,113.548155,34.790145,733235.8842,3854274.056,Others,5,4
491,方大同胡辣汤,113.552332,34.789461,733620.2299,3854207.867,Others,5,4
492,春意源逍遥镇胡辣汤,113.549794,34.790883,733383.8578,3854359.767,Xiaoyaozhen,10,7
493,拜云飞牛排胡辣汤,113.546582,34.803731,733053.605,3855778.113,Others,5,4
494,叶卫东牛肉胡辣汤,113.551744,34.800677,733534.7421,3855451.2,Others,5,4
495,双梅优质胡辣汤,113.553491,34.801119,733693.4156,3855504.32,Others,5,4
496,逍遥镇牛肉胡辣汤,113.554636,34.805132,733786.8886,3855952.334,Xiaoyaozhen,10,7
497,逍遥镇老铁家优质胡辣汤,113.536327,34.801148,732122.1373,3855467.682,Xiaoyaozhen,10,7
498,老李家逍遥镇胡辣汤,113.532727,34.804514,731783.1629,3855832.899,Xiaoyaozhen,10,7
499,优质牛肉胡辣汤,113.524204,34.80022,731014.9907,3855336.709,Others,5,4
500,高新区御遥香胡辣汤馆,113.526938,34.804494,731253.3162,3855817.316,Others,5,4
501,御遥香胡辣汤馆,113.526858,34.804631,731245.6103,3855832.335,Others,5,4
502,刘记逍遥镇胡辣汤,113.525021,34.804597,731077.5539,3855824.328,Xiaoyaozhen,10,7
503,康艳华胡辣汤豆沫馆,113.518002,34.804835,730434.401,3855834.591,Others,5,4
504,杨六山胡辣汤,113.520672,34.806232,730674.9052,3855995.76,Others,5,4
505,李秋锋牛排胡辣汤,113.521521,34.811124,730738.9703,3856540.602,Others,5,4
506,正宗逍遥镇胡辣汤,113.52766,34.813097,731295.3467,3856773.699,Xiaoyaozhen,10,7
507,胡辣汤,113.554099,34.811094,733720.8864,3856612.721,Others,5,4
508,方一坤野山菌胡辣汤,113.551266,34.81375,733454.0858,3856900.873,Others,5,4
509,逍遥胡辣汤,113.549724,34.813948,733312.3935,3856919.257,Xiaoyaozhen,10,7
510,亮洁逍遥镇胡辣汤石锅饭,113.544306,34.813918,732816.5896,3856903.334,Xiaoyaozhen,10,7
511,杨府合流镇胡辣汤,113.54655,34.824707,732991.5684,3858105.864,Others,5,4
512,方永结胡辣汤,113.546737,34.824915,733008.0952,3858129.382,Others,5,4
513,春意逍遥镇牛肉胡辣汤,113.539721,34.833756,732341.1789,3859094.232,Xiaoyaozhen,10,7
514,方一坤野山菌胡辣汤,113.541754,34.834125,732526.1681,3859139.897,Others,5,4
515,方中山胡辣汤,113.541833,34.833706,732534.576,3859093.581,Fangzhongshan,9,10
516,老杨家胡辣汤,113.56042,34.812539,734295.3506,3856787.832,Others,5,4
517,张老大胡辣汤,113.564271,34.813193,734645.9693,3856869.416,Others,5,4
518,常顺兴胡辣汤粥饼,113.558131,34.824779,734051.1914,3858140.834,Others,5,4
519,方一坤野山菌胡辣汤,113.558541,34.83076,734071.7734,3858805.54,Others,5,4
520,方大同胡辣汤荣邦店,113.562538,34.830342,734438.7157,3858768.494,Others,5,4
521,胡辣汤·串串香,113.618249,34.813477,739585.6467,3857028.583,Others,5,4
522,胡辣汤手工饺子,113.627815,34.812666,740463.5668,3856961.48,Others,5,4
523,史记胡辣汤豆沫馆,113.625642,34.817822,740249.6917,3857528.474,Others,5,4
524,李红伟胡辣汤,113.617007,34.816783,739462.394,3857392.509,Others,5,4
525,老赵家逍遥胡辣汤,113.625127,34.819629,740197.3071,3857727.778,Xiaoyaozhen,10,7
526,朋喜来逍遥镇胡辣汤,113.623871,34.819737,740082.0421,3857736.755,Xiaoyaozhen,10,7
527,西华县逍遥镇胡辣汤豆沫馆,113.623966,34.821641,740085.2071,3857948.285,Xiaoyaozhen,10,7
528,逍遥镇三羊胡辣汤,113.623479,34.825392,740029.7448,3858363.397,Xiaoyaozhen,10,7
529,牛肉胡辣汤,113.623163,34.825914,739999.3103,3858420.571,Others,5,4
530,逍遥镇胡辣汤,113.62359,34.824849,740041.4799,3858303.402,Xiaoyaozhen,10,7
531,老刘家胡辣汤,113.626513,34.825948,740305.7859,3858432.371,Others,5,4
532,杨孝业特优滋补胡辣汤八十八店,113.626288,34.825172,740287.451,3858345.713,Others,5,4
533,北舞渡胡辣汤,113.638111,34.812814,741405.5244,3857002.646,Beiwudu,8,6
534,逍遥镇春意牛肉胡辣汤,113.652606,34.812318,742733.7053,3856982.596,Xiaoyaozhen,10,7
535,逍遥镇王忠圈胡辣汤,113.652843,34.815572,742745.8452,3857344.295,Xiaoyaozhen,10,7
536,北舞渡胡辣汤,113.652226,34.815024,742690.9816,3857281.985,Beiwudu,8,6
537,聚中原胡辣汤,113.650117,34.815317,742497.0907,3857309.399,Others,5,4
538,逍遥镇李氏胡辣汤,113.643478,34.816801,741885.1009,3857458.053,Xiaoyaozhen,10,7
539,文重逍遥镇胡辣汤,113.628548,34.823068,740500.398,3858117.634,Xiaoyaozhen,10,7
540,周口胡辣汤,113.632569,34.818917,740880.4872,3857666.618,Others,5,4
541,逍遥镇胡辣汤,113.629405,34.824866,740573.596,3858319.23,Xiaoyaozhen,10,7
542,大坑沿张记胡辣汤,113.628694,34.825818,740505.758,3858423.175,Others,5,4
543,豫永兴胡辣汤,113.629452,34.823712,740581.256,3858191.274,Others,5,4
544,逍遥镇刘一碗胡辣汤,113.63062,34.823821,740687.8309,3858206.174,Xiaoyaozhen,10,7
545,老高牛肉胡辣汤,113.610443,34.832797,738815.3543,3859154.049,Others,5,4
546,汤王胡辣汤,113.625223,34.832081,740169.9082,3859109.909,Others,5,4
547,老逍遥胡辣汤,113.625066,34.830889,740159.0057,3858977.247,Xiaoyaozhen,10,7
548,姚红伟优质胡辣汤,113.624754,34.835074,740118.2934,3859440.943,Others,5,4
549,精宴胡辣汤,113.624654,34.834855,740109.7793,3859416.399,Others,5,4
550,方团结胡辣汤,113.620239,34.835523,739703.8477,3859479.963,Others,5,4
551,早到晚胡辣汤,113.65774,34.81287,743202.0001,3857056.298,Others,5,4
552,正宗优质牛肉胡辣汤,113.673356,34.815419,744623.7961,3857377.175,Others,5,4
553,高伟逍遥镇胡辣汤,113.672711,34.815493,744564.5419,3857383.814,Xiaoyaozhen,10,7
554,鑫和牛肉胡辣汤,113.662279,34.827902,743573.1614,3858735.559,Others,5,4
555,逍遥镇滋补牛肉胡辣汤,113.687853,34.813118,745957.52,3857157.279,Xiaoyaozhen,10,7
556,来壹碗菌香胡辣汤,113.687949,34.813169,745966.1553,3857163.174,Others,5,4
557,西华县逍遥镇马家胡辣汤,113.695428,34.811773,746654.8771,3857026.62,Xiaoyaozhen,10,7
558,逍遥胖哥胡辣汤,113.690034,34.821967,746130.8029,3858144.695,Xiaoyaozhen,10,7
559,老陈逍遥胡辣汤,113.692249,34.822711,746331.3045,3858232.706,Xiaoyaozhen,10,7
560,李中辉胡辣汤,113.693357,34.825736,746423.6899,3858571.145,Others,5,4
561,方永结胡辣汤,113.691725,34.825177,746276.0003,3858505.095,Others,5,4
562,西华闯哥胡辣汤,113.685971,34.819949,745764.9533,3857910.768,Others,5,4
563,老何家逍遥镇胡辣汤,113.684566,34.822077,745630.0404,3858143.49,Xiaoyaozhen,10,7
564,张记北舞渡胡辣汤,113.686148,34.820913,745778.2868,3858018.187,Beiwudu,8,6
565,方中山胡辣汤,113.684773,34.818858,745658.5508,3857786.752,Fangzhongshan,9,10
566,逍遥镇胡辣汤,113.679135,34.828269,745114.6288,3858817.383,Xiaoyaozhen,10,7
567,潘记胡辣汤,113.677694,34.824184,744994.8665,3858360.507,Others,5,4
568,尚品牛肉胡辣汤,113.681699,34.831522,745339.6118,3859184.675,Others,5,4
569,常记胡辣汤,113.685539,34.836712,745675.5782,3859770.07,Others,5,4
570,何老大牛排胡辣汤,113.680407,34.842024,745190.2111,3860347.026,Others,5,4
571,老丁家胡辣汤,113.682006,34.841886,745336.9269,3860335.625,Others,5,4
572,遥优质胡辣汤,113.689769,34.840811,746050.4329,3860235.358,Others,5,4
573,景大胡辣汤羊汤,113.664739,34.828645,743796.093,3858823.998,Others,5,4
574,郑老大牛牛包胡辣汤,113.672599,34.828957,744514.4611,3858877.771,Others,5,4
575,刘记逍遥镇胡辣汤,113.666326,34.837931,743913.9106,3859858.416,Xiaoyaozhen,10,7
576,孙老大逍遥镇胡辣汤,113.666181,34.836002,743906.3375,3859643.983,Xiaoyaozhen,10,7
577,小喜哥牛肉胡辣汤,113.669174,34.842955,744159.6599,3860422.915,Others,5,4
578,方中山胡辣汤,113.670553,34.842543,744287.0528,3860380.553,Fangzhongshan,9,10
579,逍遥镇牛肉胡辣汤,113.668833,34.842879,744128.684,3860413.65,Xiaoyaozhen,10,7
580,正宗逍遥镇胡辣汤,113.677168,34.842709,744891.8172,3860415.125,Xiaoyaozhen,10,7
581,老杜家逍遥镇胡辣汤,113.668033,34.862487,743997.5361,3862587.796,Xiaoyaozhen,10,7
582,西华县三姐妹胡辣汤,113.669224,34.862454,744106.5808,3862587.037,Others,5,4
583,方大同胡辣汤,113.67333,34.860143,744489.024,3862340.578,Others,5,4
584,方中山胡辣汤,113.671897,34.860182,744357.8205,3862341.409,Fangzhongshan,9,10
585,优质胡辣汤,113.653717,34.859343,742697.2222,3862204.088,Others,5,4
586,纯手工羊肉烩面逍遥镇胡辣汤,113.663037,34.866043,743530.0329,3862970.279,Xiaoyaozhen,10,7
587,正宗逍遥镇胡辣汤,113.683635,34.874376,745389.3797,3863945.374,Xiaoyaozhen,10,7
588,伊光胡辣汤,113.662966,34.870684,743509.843,3863485.165,Others,5,4
589,逍遥镇牛肉胡辣汤,113.660207,34.876244,743241.0957,3864095.507,Xiaoyaozhen,10,7
590,正宗逍遥镇优质胡辣汤,113.659917,34.875762,743215.9933,3864041.31,Xiaoyaozhen,10,7
591,老吴家逍遥镇胡辣汤,113.675858,34.869364,744692.94,3863370.103,Xiaoyaozhen,10,7
592,李记牛肉胡辣汤,113.672336,34.876757,744348.8942,3864181.979,Others,5,4
593,老白记牛肉胡辣汤,113.670659,34.874186,744203.1269,3863892.557,Others,5,4
594,老杜家逍遥镇胡辣汤,113.670614,34.874067,744199.3633,3863879.24,Xiaoyaozhen,10,7
595,周姐胡辣汤,113.626541,34.865594,740193.0231,3862832.295,Others,5,4
596,李元祯胡辣汤,113.640971,34.865551,741513.075,3862862.232,Others,5,4
597,杨记优质胡辣汤,113.640619,34.85992,741497.352,3862236.459,Others,5,4
598,方永络胡辣汤,113.622116,34.869549,739776.7737,3863260.611,Others,5,4
599,方中山胡辣汤,113.628364,34.868535,740351.2089,3863163.059,Fangzhongshan,9,10
600,程永亮牛肉胡辣汤,113.624246,34.869877,739970.6431,3863302.115,Others,5,4
601,张志华鲜牛肉胡辣汤,113.622358,34.872183,739791.2539,3863553.509,Others,5,4
602,胡辣汤,113.622692,34.872918,739819.6664,3863635.878,Others,5,4
603,逍遥镇高伟胡辣汤,113.57301,34.888357,735231.6236,3865231.378,Xiaoyaozhen,10,7
604,方永结胡辣汤,113.573427,34.888351,735269.773,3865231.692,Others,5,4
605,北舞渡优质炖肉胡辣汤,113.576279,34.894002,735514.4306,3865865.535,Beiwudu,8,6
606,李记胡辣汤,113.793951,34.809449,755680.2288,3857015.509,Others,5,4
607,张老大胡辣汤,113.74406,34.871095,750926.028,3863731.029,Others,5,4
608,何记优质胡辣汤老店,113.743702,34.871236,750892.8538,3863745.781,Others,5,4
609,志刚胡辣汤馆,113.746391,34.870858,751139.9608,3863710.571,Others,5,4
610,正宗逍遥镇牛羊肉胡辣汤,113.746282,34.870984,751129.6073,3863724.282,Xiaoyaozhen,10,7
611,何记特优胡辣汤,113.74489,34.876175,750986.491,3864296.902,Others,5,4
612,方中山胡辣汤,113.802305,34.810907,756440.4126,3857198.659,Fangzhongshan,9,10
613,方团结胡辣汤,113.800831,34.81311,756298.6597,3857439.387,Others,5,4
614,逍遥镇刘老婆胡辣汤豆沫馆,113.80105,34.813414,756317.7631,3857473.686,Xiaoyaozhen,10,7
615,齐中杰胡辣汤,113.801389,34.81254,756351.5027,3857377.553,Others,5,4
616,裴江峰逍遥镇胡辣汤,113.808033,34.812591,756959.4986,3857400.222,Xiaoyaozhen,10,7
617,逍遥镇牛肉胡辣汤,113.800948,34.815585,756301.6965,3857714.371,Xiaoyaozhen,10,7
618,胡辣汤猪蹄,113.805549,34.815039,756724.526,3857665.547,Others,5,4
619,小旭胡辣汤,113.805389,34.81512,756709.6294,3857674.127,Others,5,4
620,正宗逍遥镇牛肉胡辣汤,113.800941,34.816609,756297.8813,3857828,Xiaoyaozhen,10,7
621,小岳胡辣汤店,113.501323,34.81101,728890.5964,3856481.662,Others,5,4
622,春意逍遥镇胡辣汤,113.500974,34.813455,728851.8873,3856752.197,Xiaoyaozhen,10,7
623,老逍遥胡辣汤,113.676132,34.637213,745404.4736,3837606.93,Xiaoyaozhen,10,7
624,逍遥镇丁老三胡辣汤总店,113.677103,34.637316,745493.2348,3837620.727,Xiaoyaozhen,10,7
625,正宗逍遥镇牛肉胡辣汤,113.716679,34.688778,748969.2277,3843429.111,Xiaoyaozhen,10,7
626,正宗逍遥镇纯牛肉胡辣汤,113.715847,34.688452,748893.9358,3843390.872,Xiaoyaozhen,10,7
627,春意源逍遥镇牛肉胡辣汤,113.715791,34.688419,748888.9012,3843387.071,Xiaoyaozhen,10,7
628,逍遥镇单记胡辣汤,113.716758,34.688987,748975.8432,3843452.501,Xiaoyaozhen,10,7
629,红香村牛肉胡辣汤,113.719083,34.68873,749189.7443,3843429.738,Others,5,4
630,时裕胡辣汤豆沫,113.718203,34.690766,749102.9699,3843653.511,Others,5,4
631,牛肉胡辣汤,113.752357,34.722106,752138.572,3847216.776,Others,5,4
632,王树林胡辣汤包子老店,113.712379,34.702485,748534.029,3844939.666,Others,5,4
633,胡辣汤包子老店炸酱面,113.712252,34.702638,748521.931,3844956.332,Others,5,4
634,正宗逍遥镇胡辣汤,113.712355,34.705943,748521.4781,3845323.373,Xiaoyaozhen,10,7
635,方中山胡辣汤,113.733462,34.723442,750403.1359,3847317.797,Fangzhongshan,9,10
636,王记西华一品胡辣汤,113.738265,34.724345,750840.5105,3847429.992,Others,5,4
637,周口逍遥镇珍菌胡辣汤,113.736831,34.725597,750705.329,3847565.36,Xiaoyaozhen,10,7
638,方一坤野山菌胡辣汤,113.733862,34.72602,750432.006,3847604.901,Others,5,4
639,麦香逍遥镇胡辣汤,113.737117,34.727024,750727.2218,3847724.443,Xiaoyaozhen,10,7
640,荆鑫胡辣汤,113.733487,34.729683,750386.5883,3848010.487,Others,5,4
641,方中山胡辣汤,113.706526,34.717062,747954.0328,3846542.956,Fangzhongshan,9,10
642,高群生逍遥胡辣汤,113.705984,34.718287,747900.7057,3846677.568,Xiaoyaozhen,10,7
643,正宗逍遥镇白老四胡辣汤,113.721759,34.71802,749347.0715,3846686.963,Xiaoyaozhen,10,7
644,胡辣汤,113.722315,34.717973,749398.1629,3846683.127,Others,5,4
645,老王家文东胡辣汤,113.721776,34.719405,749344.4675,3846840.712,Others,5,4
646,高老大牛排胡辣汤,113.717621,34.724706,748947.8169,3847418.714,Others,5,4
647,春意逍遥镇牛肉胡辣汤,113.71127,34.723559,748369.3132,3847275.704,Xiaoyaozhen,10,7
648,包子老店牛肉胡辣汤,113.711481,34.723543,748388.6951,3847274.45,Others,5,4
649,正宗逍遥镇老武家珍菌胡辣汤,113.709192,34.724226,748176.9099,3847344.593,Xiaoyaozhen,10,7
650,陈家香胡辣汤,113.712078,34.73747,748401.6859,3848821.539,Others,5,4
651,逍遥镇胡辣汤,113.711346,34.737436,748334.7255,3848815.956,Xiaoyaozhen,10,7
652,野山菌胡辣汤,113.706427,34.7375,747883.8799,3848810.909,Others,5,4
653,逍遥镇王发展胡辣汤,113.70661,34.739473,747894.7468,3849030.323,Xiaoyaozhen,10,7
654,逍遥镇炖肉胡辣汤,113.716203,34.739942,748772.1816,3849106.09,Xiaoyaozhen,10,7
655,沈记高伟胡辣汤,113.716121,34.741758,748759.2208,3849307.427,Others,5,4
656,逍遥八百里胡辣汤,113.714386,34.742541,748597.9289,3849390.028,Xiaoyaozhen,10,7
657,逍遥镇老杨家胡辣汤,113.716754,34.741692,748817.4083,3849301.67,Xiaoyaozhen,10,7
658,方一坤野山菌胡辣汤,113.721825,34.743505,749276.5143,3849515.451,Others,5,4
659,小喜哥牛肉胡辣汤,113.72226,34.749244,749299.1036,3850153.446,Others,5,4
660,逍遥镇牛肉胡辣汤,113.718001,34.74625,748917.9605,3849810.607,Xiaoyaozhen,10,7
661,逍遥镇早点胡辣汤,113.703169,34.741622,747573.0908,3849260.331,Xiaoyaozhen,10,7
662,正宗优质牛肉胡辣汤,113.711268,34.75012,748289.5884,3850223.431,Others,5,4
663,高家优质牛肉胡辣汤,113.730202,34.738727,750058.3311,3849006.011,Others,5,4
664,逍遥镇牛肉胡辣汤,113.751141,34.738203,751978.2385,3849000.185,Xiaoyaozhen,10,7
665,逍遥镇老杨家胡辣汤,113.747942,34.74092,751676.9139,3849293.7,Xiaoyaozhen,10,7
666,新宴逍遥镇胡辣汤豆沫馆,113.747807,34.740929,751664.5189,3849294.361,Xiaoyaozhen,10,7
667,李记逍遥镇胡辣汤,113.739905,34.742198,750936.7592,3849415.424,Xiaoyaozhen,10,7
668,方永结胡辣汤中式快餐烩面,113.741561,34.741685,751090.02,3849362.629,Others,5,4
669,王老婆胡辣汤,113.748227,34.743806,751694.2614,3849614.706,Others,5,4
670,李记胡辣汤,113.745964,34.749827,751468.6834,3850277.253,Others,5,4
671,方中山胡辣汤,113.730158,34.742079,750044.191,3849377.908,Fangzhongshan,9,10
672,十五味胡辣汤,113.730279,34.744355,750048.411,3849630.8,Others,5,4
673,方一坤野山菌胡辣汤,113.730213,34.744263,750042.6423,3849620.426,Others,5,4
674,方一坤野山菌胡辣汤,113.730225,34.744216,750043.8834,3849615.24,Others,5,4
675,逍遥镇王老二牛肉胡辣汤,113.733037,34.741365,750310.0933,3849305.839,Xiaoyaozhen,10,7
676,方永结胡辣汤,113.730179,34.750328,750021.2331,3850293.438,Others,5,4
677,高掌门逍遥胡辣汤,113.730184,34.749384,750024.5388,3850188.685,Xiaoyaozhen,10,7
678,蔡老三逍遥镇胡辣汤,113.730133,34.753044,750008.8262,3850594.746,Xiaoyaozhen,10,7
679,高春伟胡辣汤,113.736102,34.753288,750554.8392,3850636.704,Others,5,4
680,逍遥镇高记胡辣汤,113.732877,34.753315,750259.3536,3850631.658,Xiaoyaozhen,10,7
681,清真逍遥镇杨二产胡辣汤,113.733473,34.753849,750312.3331,3850692.407,Xiaoyaozhen,10,7
682,方中山胡辣汤,113.742301,34.759708,751103.201,3851364.689,Fangzhongshan,9,10
683,徐记特色胡辣汤油条,113.712146,34.755312,748354.4545,3850801.811,Others,5,4
684,方源远胡辣汤,113.710759,34.755984,748225.3989,3850872.959,Others,5,4
685,原汁牛肉胡辣汤,113.709021,34.757565,748061.4746,3851044.123,Others,5,4
686,方中山胡辣汤,113.709269,34.759755,748077.6325,3851287.782,Fangzhongshan,9,10
687,方一坤野山菌胡辣汤,113.706106,34.757695,747794.0931,3851051.352,Others,5,4
688,北舞渡马记炖肉胡辣汤,113.706225,34.759754,747798.8346,3851280.153,Beiwudu,8,6
689,逍遥镇胡辣汤,113.70599,34.759338,747778.555,3851233.405,Xiaoyaozhen,10,7
690,方中山胡辣汤,113.718795,34.751401,748975.2221,3850384.234,Fangzhongshan,9,10
691,北舞渡胡辣汤,113.716394,34.755238,748743.7738,3850804.114,Beiwudu,8,6
692,方家味道胡辣汤,113.720068,34.757851,749072.4415,3851103.214,Others,5,4
693,开封白胡辣汤碗蒸豆腐脑,113.718449,34.7556,748930.9152,3850849.382,Others,5,4
694,毛老大逍遥镇牛肉胡辣汤总部,113.706457,34.764049,747807.2362,3851757.385,Xiaoyaozhen,10,7
695,鬼冒火胡辣汤豆腐脑粥,113.709999,34.765597,748126.9953,3851937.931,Others,5,4
696,方中山胡辣汤,113.711633,34.76735,748271.3891,3852136.52,Fangzhongshan,9,10
697,信阳大众快餐胡辣汤,113.710393,34.770112,748149.5522,3852439.981,Others,5,4
698,李记胡辣汤,113.755625,34.740817,752381.0849,3849301.548,Others,5,4
699,方中山胡辣汤,113.756918,34.743829,752490.3665,3849639.074,Fangzhongshan,9,10
700,天津特色包子胡辣汤,113.755404,34.743957,752351.2805,3849649.474,Others,5,4
701,逍遥镇胡辣汤,113.753118,34.74574,752136.439,3849841.612,Xiaoyaozhen,10,7
702,荆鑫胡辣汤,113.75911,34.741427,752698.4955,3849378.01,Others,5,4
703,逍遥镇胡辣汤,113.758082,34.740937,752605.8114,3849321.043,Xiaoyaozhen,10,7
704,王记手擀面逍遥镇胡辣汤,113.753125,34.745932,752136.4963,3849862.938,Xiaoyaozhen,10,7
705,刘记胡辣汤牛肉面,113.754608,34.749594,752261.2039,3850273.075,Others,5,4
706,逍遥镇胡辣汤,113.751255,34.748313,751957.954,3850122.49,Xiaoyaozhen,10,7
707,方中山胡辣汤,113.776293,34.746679,754256.5588,3850004.255,Fangzhongshan,9,10
708,粥道胡辣汤,113.776673,34.749715,754282.0549,3850342.158,Others,5,4
709,王志光胡辣汤,113.776014,34.749513,754222.308,3850318.071,Others,5,4
710,高群生逍遥胡辣汤,113.759476,34.751809,752700.3729,3850531.14,Xiaoyaozhen,10,7
711,灿哥胡辣汤总店,113.774414,34.767294,754021.2214,3852287.394,Others,5,4
712,岑府逍遥名镇胡辣汤八宝粥,113.768313,34.772136,753447.6513,3852809.345,Xiaoyaozhen,10,7
713,逍遥名镇营养早饭.胡辣汤,113.768364,34.772328,753451.7341,3852830.782,Xiaoyaozhen,10,7
714,张中方胡辣汤店,113.77391,34.773345,753956.5071,3852957.672,Others,5,4
715,方中山胡辣汤,113.773114,34.772842,753885.154,3852899.834,Fangzhongshan,9,10
716,杨府合流镇胡辣汤,113.771018,34.772696,753693.6548,3852878.33,Others,5,4
717,逍遥镇李老大胡辣汤,113.773039,34.775642,753869.701,3853210.394,Xiaoyaozhen,10,7
718,逍遥镇胡辣汤,113.77294,34.775581,753860.8221,3853203.374,Xiaoyaozhen,10,7
719,北舞渡胡辣汤畅和街店,113.77549,34.779472,754082.396,3853641.66,Beiwudu,8,6
720,张记逍遥镇优质牛肉胡辣汤,113.768017,34.776332,753407.7027,3853274.278,Xiaoyaozhen,10,7
721,祭城胡辣汤麻糖馆,113.76672,34.776588,753288.1487,3853299.415,Others,5,4
722,老郭家-胡辣汤-焖面-黄焖鸡,113.766977,34.777004,753310.4103,3853346.233,Others,5,4
723,逍遥镇胡辣汤,113.774879,34.78323,754014.9149,3854057.185,Xiaoyaozhen,10,7
724,早饭胡辣汤,113.704098,34.772115,747567.0761,3852646.728,Others,5,4
725,逍遥红胡辣汤,113.704451,34.775729,747588.597,3853048.68,Xiaoyaozhen,10,7
726,代贯辉胡辣汤,113.704326,34.777338,747572.3395,3853226.939,Others,5,4
727,方一坤野山菌胡辣汤,113.704397,34.777301,747578.9517,3853223.008,Others,5,4
728,胡辣汤八宝粥水煎包菜角,113.705146,34.7838,747628.0984,3853946.116,Others,5,4
729,方中山胡辣汤,113.740342,34.78172,750857.0894,3853802.707,Fangzhongshan,9,10
730,逍遥于婉君胡辣汤,113.52691,34.708026,731520.0912,3845111.789,Xiaoyaozhen,10,7
731,张向兵逍遥镇滋补胡辣汤,113.528955,34.707162,731709.9122,3845020.619,Xiaoyaozhen,10,7
732,正宗逍遥镇李水长胡辣汤,113.527138,34.710362,731534.4708,3845371.548,Xiaoyaozhen,10,7
733,逍遥镇李三军胡辣汤,113.527131,34.709748,731535.5418,3845303.394,Xiaoyaozhen,10,7
734,逍遥镇老李家胡辣汤,113.526955,34.709653,731519.6779,3845292.447,Xiaoyaozhen,10,7
735,逍遥镇优质胡辣汤,113.660758,34.657968,743933.4411,3839872.897,Xiaoyaozhen,10,7
736,陈记滋补胡辣汤,113.660872,34.657697,743944.6899,3839843.099,Others,5,4
737,郜记北舞渡牛肉胡辣汤,113.661221,34.6923,743875.1455,3843684.089,Beiwudu,8,6
738,春意逍遥镇牛肉胡辣汤,113.659602,34.692599,743725.8647,3843713.347,Xiaoyaozhen,10,7
739,老常家胡辣汤,113.668148,34.692762,744508.7406,3843752.181,Others,5,4
740,单记逍遥镇优质胡辣汤,113.667003,34.69405,744399.9962,3843892.337,Xiaoyaozhen,10,7
741,豫小胖胡辣汤,113.66559,34.692703,744274.4393,3843739.417,Others,5,4
742,高掌门逍遥胡辣汤,113.667961,34.694036,744487.8496,3843893.112,Xiaoyaozhen,10,7
743,方中山胡辣汤,113.67028,34.695359,744696.516,3844045.576,Fangzhongshan,9,10
744,郑记小笼包胡辣汤黄焖鸡,113.667612,34.696151,744449.6346,3844126.981,Others,5,4
745,北舞渡桥头炖肉胡辣汤,113.665799,34.696321,744282.9557,3844141.442,Beiwudu,8,6
746,逍遥镇胡辣汤,113.677329,34.696854,745338.2156,3844228.664,Xiaoyaozhen,10,7
747,禾生香胡辣汤热干面,113.677292,34.696912,745334.6528,3844235.01,Others,5,4
748,老方家胡辣汤,113.672924,34.695926,744937.1944,3844114.937,Others,5,4
749,方磊胡辣汤,113.673152,34.695966,744957.9749,3844119.932,Others,5,4
750,北舞渡吕大召胡辣汤,113.697398,34.702167,747161.913,3844867.443,Beiwudu,8,6
751,霸气高老大牛排胡辣汤,113.6994,34.70359,747341.1648,3845030.289,Others,5,4
752,逍遥镇容记胡辣汤,113.698584,34.716718,747227.2733,3846485.214,Xiaoyaozhen,10,7
753,方中山胡辣汤,113.690208,34.722807,746441.6322,3847140.391,Fangzhongshan,9,10
754,怼碗胡辣汤,113.690687,34.723362,746483.8745,3847203.159,Others,5,4
755,方芯客胡辣汤,113.693816,34.721641,746775.704,3847019.844,Others,5,4
756,闪长雨北舞渡炖肉胡辣汤,113.691516,34.725047,746554.8283,3847392.192,Beiwudu,8,6
757,清真回族牛肉胡辣汤,113.690172,34.724876,746432.1879,3847369.918,Others,5,4
758,优质胡辣汤,113.690179,34.724792,746433.0788,3847360.613,Others,5,4
759,老闫家牛肉胡辣汤,113.682291,34.722698,745716.5155,3847108.907,Others,5,4
760,老吴家胡辣汤,113.682344,34.722748,745721.2238,3847114.586,Others,5,4
761,胡辣汤慢熬粥,113.678527,34.725796,745362.4557,3847443.521,Others,5,4
762,老王家滋补牛肉胡辣汤,113.678375,34.724722,745351.7046,3847323.959,Others,5,4
763,徐记牛肉胡辣汤,113.687579,34.726908,746188.5653,3847589.071,Others,5,4
764,田氏油饼胡辣汤,113.687607,34.726545,746192.2081,3847548.854,Others,5,4
765,珍记珍菌胡辣汤,113.680588,34.727926,745544.9945,3847684.94,Others,5,4
766,刘记鸡丝胡辣汤,113.682161,34.727409,745690.6515,3847631.409,Others,5,4
767,老徐家逍遥镇胡辣汤,113.680085,34.729427,745494.4649,3847850.29,Xiaoyaozhen,10,7
768,刘一勺逍遥镇优质胡辣汤,113.655374,34.713223,743277.8783,3845991.907,Xiaoyaozhen,10,7
769,逍遥镇胡辣汤,113.65972,34.7171,743664.7649,3846432.695,Xiaoyaozhen,10,7
770,豫膳煌胡辣汤,113.661884,34.717079,743863.1274,3846435.613,Others,5,4
771,杨红军牛羊肉胡辣汤,113.66481,34.720806,744120.2909,3846856.331,Others,5,4
772,逍遥香胡辣汤,113.664932,34.721131,744130.5138,3846892.696,Xiaoyaozhen,10,7
773,逍遥镇胡辣汤,113.653519,34.71731,743095.9139,3846440.984,Xiaoyaozhen,10,7
774,李辉逍遥镇牛肉胡辣汤,113.652998,34.717282,743048.2537,3846436.616,Xiaoyaozhen,10,7
775,老碗面·北舞渡胡辣汤,113.658559,34.717189,743558.114,3846439.758,Beiwudu,8,6
776,何记逍遥镇胡辣汤,113.656768,34.719173,743388.1748,3846655.599,Xiaoyaozhen,10,7
777,逍遥镇高记胡辣汤,113.656848,34.725404,743377.2278,3847347.295,Xiaoyaozhen,10,7
778,徐记优质胡辣汤,113.655206,34.725006,743227.9432,3847299.15,Others,5,4
779,刘记牛肉胡辣汤,113.660397,34.723279,743708.6541,3847120.068,Others,5,4
780,逍遥镇张记胡辣汤,113.661982,34.72302,743854.648,3847095.17,Xiaoyaozhen,10,7
781,老逍遥胡辣汤,113.660034,34.723472,743674.8258,3847140.607,Xiaoyaozhen,10,7
782,老朱家逍遥镇胡辣汤,113.633076,34.697533,741280.079,3844196.94,Xiaoyaozhen,10,7
783,张记胡辣汤豆沫,113.632693,34.697786,741244.2394,3844224.098,Others,5,4
784,赵家滋补胡辣汤,113.651075,34.693887,742940.4853,3843835.653,Others,5,4
785,苏记炖肉胡辣汤,113.652208,34.693682,743044.9378,3843815.64,Others,5,4
786,逍遥镇八百里胡辣汤,113.648547,34.696969,742699.7585,3844171.58,Xiaoyaozhen,10,7
787,群喜逍遥八百里胡辣汤,113.648486,34.696983,742694.1264,3844172.987,Xiaoyaozhen,10,7
788,孙贯忠胡辣汤大刀手擀面,113.650791,34.707494,742874.6522,3845345.034,Others,5,4
789,杨孝业特优滋补胡辣汤,113.641051,34.70885,741978.0629,3845472.031,Others,5,4
790,老徐家胡辣汤,113.644307,34.708097,742278.6563,3845396.308,Others,5,4
791,逍遥镇杨秋花胡辣汤,113.632968,34.703294,741253.4425,3844836.017,Xiaoyaozhen,10,7
792,春意源逍遥镇胡辣汤,113.632888,34.703893,741244.3701,3844902.301,Xiaoyaozhen,10,7
793,白老五炖肉胡辣汤,113.63182,34.706035,741140.2665,3845137.451,Others,5,4
794,方一坤野山菌胡辣汤,113.633248,34.706909,741268.5996,3845237.87,Others,5,4
795,方中山胡辣汤,113.628546,34.711844,740823.3597,3845774.266,Fangzhongshan,9,10
796,清真高老大牛排胡辣汤,113.628534,34.711859,740822.2165,3845775.902,Others,5,4
797,方中山胡辣汤,113.640853,34.714491,741943.4744,3846097.576,Fangzhongshan,9,10
798,牛会敏胡辣汤,113.641564,34.715386,742006.0198,3846198.613,Others,5,4
799,强强牛肉胡辣汤,113.650348,34.712518,742819.3564,3845901.515,Others,5,4
800,泉博逍遥镇牛肉胡辣汤,113.650745,34.715651,742846.5707,3846250.166,Xiaoyaozhen,10,7
801,真回族胡辣汤,113.649741,34.715476,742755.0785,3846228.32,Others,5,4
802,二十五味胡辣汤,113.648119,34.725092,742578.3293,3847291.563,Others,5,4
803,老字号李霞胡辣汤,113.64512,34.728541,742293.4662,3847667.088,Others,5,4
804,越洋炖肉胡辣汤,113.643399,34.730669,742129.5711,3847899.099,Others,5,4
805,张魁胡辣汤店,113.631949,34.722869,741103.1826,3847005.944,Others,5,4
806,方大同胡辣汤,113.631032,34.724895,741013.2733,3847228.584,Others,5,4
807,张彪胡辣汤,113.636414,34.72147,741516.379,3846861.409,Others,5,4
808,方秀华优质胡辣汤,113.636088,34.722386,741483.8415,3846962.281,Others,5,4
809,方中山胡辣汤,113.636073,34.723928,741477.9791,3847133.371,Fangzhongshan,9,10
810,郑洪伟牛排胡辣汤,113.636439,34.726508,741504.0047,3847420.572,Others,5,4
811,高老大一品胡辣汤,113.631092,34.726564,741013.9223,3847413.949,Others,5,4
812,逍遥镇牛排胡辣汤,113.632511,34.730376,741132.8572,3847840.398,Xiaoyaozhen,10,7
813,杨洪伟胡辣汤,113.626481,34.713285,740629.9431,3845929.238,Others,5,4
814,家香汇老练胡辣汤豆沫,113.628476,34.712879,740813.9421,3845888.959,Others,5,4
815,方一鲜胡辣汤,113.62647,34.713746,740627.5986,3845980.372,Others,5,4
816,老王家胡辣汤,113.623312,34.715186,740334.0328,3846132.623,Others,5,4
817,周老三胡辣汤,113.627286,34.718135,740689.6473,3846469.403,Others,5,4
818,杨记胡辣汤,113.620635,34.718379,740079.4826,3846480.573,Others,5,4
819,逍遥镇穆彦春牛排胡辣汤总店,113.620614,34.717912,740078.9093,3846428.697,Xiaoyaozhen,10,7
820,逍遥镇牛肉胡辣汤,113.620632,34.717261,740082.442,3846356.494,Xiaoyaozhen,10,7
821,成义逍遥镇胡辣汤,113.617334,34.719295,739774.3529,3846574.347,Xiaoyaozhen,10,7
822,逍遥老杨家胡辣汤,113.624646,34.723864,740431.1325,3847098.869,Xiaoyaozhen,10,7
823,逍遥镇牛肉胡辣汤,113.625664,34.722911,740527.1723,3846995.544,Xiaoyaozhen,10,7
824,张海真牛肉胡辣汤,113.623497,34.727048,740316.6291,3847449.471,Others,5,4
825,老杜家胡辣汤,113.625393,34.727335,740489.5168,3847485.857,Others,5,4
826,老刘家胡辣汤,113.623801,34.728988,740338.8623,3847665.493,Others,5,4
827,老武家逍遥镇炖肉胡辣汤,113.62104,34.730085,740082.7186,3847780.633,Xiaoyaozhen,10,7
828,武艳萍逍遥镇炖肉胡辣汤,113.620891,34.729929,740069.5186,3847762.965,Xiaoyaozhen,10,7
829,程大姐胡辣汤,113.606744,34.727982,738778.9628,3847513.183,Others,5,4
830,清真赵老大逍遥镇胡辣汤,113.609562,34.730676,739029.3931,3847818.854,Xiaoyaozhen,10,7
831,杨志方胡辣汤,113.613006,34.73286,739338.6302,3848069.425,Others,5,4
832,方中山胡辣汤,113.606558,34.73771,738733.9191,3848592.319,Fangzhongshan,9,10
833,逍遥镇牛肉胡辣汤,113.605863,34.740328,738662.7138,3848881.204,Xiaoyaozhen,10,7
834,逍遥镇精品胡辣汤,113.617292,34.732466,739732.4422,3848035.919,Xiaoyaozhen,10,7
835,何氏烧饼逍遥镇牛肉胡辣汤,113.616251,34.732722,739636.3281,3848061.846,Xiaoyaozhen,10,7
836,闫记正宗逍遥镇胡辣汤,113.620407,34.733297,740015.428,3848135.578,Xiaoyaozhen,10,7
837,严八弟胡辣汤,113.622006,34.738181,740147.7811,3848681.41,Others,5,4
838,西华逍遥镇胡辣汤,113.619436,34.740463,739905.7362,3848928.519,Xiaoyaozhen,10,7
839,晓波大筷牛肉胡辣汤豆沫馆,113.619887,34.740298,739947.5295,3848911.285,Others,5,4
840,逍遥镇胡辣汤,113.618618,34.740159,739831.6791,3848892.828,Xiaoyaozhen,10,7
841,方一坤野山菌胡辣汤,113.619027,34.74244,739862.5488,3849146.943,Others,5,4
842,钱记优质牛肉胡辣汤,113.617154,34.741976,739692.31,3849090.979,Others,5,4
843,老何记周口优质牛肉胡辣汤,113.620632,34.743015,740007.9137,3849214.589,Others,5,4
844,逍遥镇优质胡辣汤,113.616751,34.744477,739648.163,3849367.57,Xiaoyaozhen,10,7
845,赵记逍遥镇牛肉胡辣汤,113.610555,34.742464,739086.3849,3849129.408,Xiaoyaozhen,10,7
846,北舞渡胡辣汤,113.610448,34.741494,739079.3799,3849021.506,Beiwudu,8,6
847,小白帽胡辣汤,113.611523,34.744992,739167.7677,3849412.261,Others,5,4
848,方中山胡辣汤,113.637279,34.732373,741563.8897,3848073.473,Fangzhongshan,9,10
849,方永结胡辣汤,113.640551,34.731559,741866.04,3847991.009,Others,5,4
850,方一坤野山菌胡辣汤,113.639632,34.732637,741778.6991,3848108.431,Others,5,4
851,牛肉胡辣汤,113.636157,34.736968,741447.7157,3848580.716,Others,5,4
852,老佟家逍遥牛排胡辣汤,113.63621,34.738779,741447.2982,3848781.824,Xiaoyaozhen,10,7
853,胡辣汤豆沫,113.644612,34.732577,742235.1348,3848113.768,Others,5,4
854,周口优质胡辣汤,113.641123,34.735645,741906.5285,3848445.84,Others,5,4
855,逍遥镇胡辣汤,113.650931,34.738232,742797.5174,3848756.602,Xiaoyaozhen,10,7
856,美食·家俊牛排胡辣汤,113.65096,34.738631,742799.0059,3848800.952,Others,5,4
857,马记胡辣汤,113.64726,34.739343,742457.9592,3848871.031,Others,5,4
858,逍遥镇炖肉胡辣汤,113.647787,34.739864,742504.7146,3848930.122,Xiaoyaozhen,10,7
859,大成胡辣汤,113.646529,34.738943,742392.1606,3848824.876,Others,5,4
860,刘一奇胡辣汤,113.646801,34.741044,742410.9366,3849058.696,Others,5,4
861,逍遥镇刘相五胡辣汤豆沫馆,113.64895,34.746006,742593.2855,3849614.557,Xiaoyaozhen,10,7
862,朱记胡辣汤沙口路总店,113.640995,34.768943,741797.6374,3852140.867,Others,5,4
863,钱记优质牛肉胡辣汤,113.609518,34.751113,738966.4555,3850086.777,Others,5,4
864,逍遥镇老袁家胡辣汤,113.607472,34.75238,738775.3974,3850222.517,Xiaoyaozhen,10,7
865,闪长雨北舞渡炖肉胡辣汤,113.611599,34.756333,739142.0068,3850671.03,Beiwudu,8,6
866,费记牛肉胡辣汤,113.611678,34.75625,739149.482,3850662.007,Others,5,4
867,北舞渡闪家胡辣汤,113.626107,34.759591,740461.3652,3851067.243,Beiwudu,8,6
868,杜记胡辣汤,113.616616,34.757389,739598.4687,3850800.182,Others,5,4
869,苏记优质牛肉胡辣汤,113.620055,34.757872,739912.0502,3850861.996,Others,5,4
870,李巧胡辣汤包子铺,113.620254,34.757837,739930.378,3850858.587,Others,5,4
871,徐其赠包子老式油条胡辣汤,113.617958,34.766478,739695.0867,3851812.056,Others,5,4
872,李记逍遥镇胡辣汤,113.607147,34.761639,738718.9547,3851249.278,Xiaoyaozhen,10,7
873,开封牛肉胡辣汤,113.615716,34.761774,739503.3621,3851284.669,Others,5,4
874,方永结胡辣汤,113.613452,34.762421,739294.1436,3851351.072,Others,5,4
875,万掌柜胡辣汤,113.65382,34.731345,743082.3717,3847999.284,Others,5,4
876,西华县老庞家牛排胡辣汤,113.657825,34.73131,743449.414,3848005.097,Others,5,4
877,刘记滋补胡辣汤,113.658141,34.733981,743470.5252,3848302.285,Others,5,4
878,开封小吃胡辣汤,113.668866,34.739221,744437.6784,3848909.856,Others,5,4
879,方中山胡辣汤,113.670172,34.740406,744553.8287,3849044.545,Fangzhongshan,9,10
880,刘记优质胡辣汤,113.67669,34.741803,745146.8174,3849215.471,Others,5,4
881,盖记牛肉胡辣汤,113.67306,34.744238,744807.0855,3849476.85,Others,5,4
882,方大同胡辣汤,113.674858,34.750492,744953.3126,3850175.294,Others,5,4
883,胡辣汤豆沫,113.670493,34.746187,744566.1817,3849686.893,Others,5,4
884,逍遥镇胡辣汤,113.660391,34.747876,743635.832,3849849.781,Xiaoyaozhen,10,7
885,汤掌柜胡辣汤,113.683388,34.737145,745774.2236,3848714.9,Others,5,4
886,逍遥镇胡辣汤,113.683648,34.737285,745797.6285,3848731.073,Xiaoyaozhen,10,7
887,逍遥镇杨明建胡辣汤,113.700476,34.737312,747339.2409,3848775.375,Xiaoyaozhen,10,7
888,方中山胡辣汤,113.696903,34.73948,747005.4427,3849007.187,Fangzhongshan,9,10
889,中华胡辣汤豆沫,113.69658,34.739972,746974.3864,3849060.994,Others,5,4
890,高群生逍遥胡辣汤,113.690388,34.737572,746414.2581,3848779.437,Xiaoyaozhen,10,7
891,逍遥镇胡辣汤,113.693079,34.736869,746662.8836,3848708.023,Xiaoyaozhen,10,7
892,吕记逍遥镇优质胡辣汤,113.691139,34.738738,746479.5946,3848910.681,Xiaoyaozhen,10,7
893,逍遥镇姚有良优质胡辣汤,113.70039,34.743995,747311.4272,3849516.839,Xiaoyaozhen,10,7
894,豫东优质胡辣汤,113.698016,34.747089,747084.7288,3849854.366,Others,5,4
895,赵二胡辣汤,113.691614,34.74987,746490.0101,3850147.267,Others,5,4
896,正宗逍遥镇老方胡辣汤店,113.680532,34.752341,745467.5733,3850394.35,Xiaoyaozhen,10,7
897,刘俊峰胡辣汤砂锅面,113.679883,34.75304,745406.0565,3850470.338,Others,5,4
898,逊母口胡辣汤,113.679488,34.754978,745364.1377,3850684.45,Others,5,4
899,深夜胡辣汤,113.680479,34.754709,745455.7049,3850657.018,Others,5,4
900,逍遥镇姚有良优质胡辣汤,113.688351,34.760137,746160.617,3851278.686,Xiaoyaozhen,10,7
901,马军胡辣汤,113.679794,34.756021,745389.0772,3850800.949,Others,5,4
902,方中山胡辣汤,113.682351,34.760076,745611.2622,3851257.221,Fangzhongshan,9,10
903,郭记胡辣汤,113.694041,34.750798,746709.563,3850256.216,Others,5,4
904,王文理胡辣汤,113.694029,34.755363,746694.8747,3850762.807,Others,5,4
905,老大牛排胡辣汤,113.691718,34.754126,746486.8785,3850619.85,Others,5,4
906,沈三煎包sha汤胡辣汤,113.699987,34.758049,747232.5827,3851075.553,Others,5,4
907,逍遥镇郝新建牛肉胡辣汤,113.699921,34.759664,747221.7188,3851254.623,Xiaoyaozhen,10,7
908,吴氏逍遥镇胡辣汤,113.69425,34.759894,746701.6265,3851266.198,Xiaoyaozhen,10,7
909,主营胡辣汤,113.700055,34.768158,747208.6433,3852197.615,Others,5,4
910,冯中信胡辣汤,113.658345,34.756911,743421.876,3850847.508,Others,5,4
911,姚锋国胡辣汤,113.671759,34.752636,744663.1161,3850405.678,Others,5,4
912,回族胡辣汤,113.671705,34.752638,744658.164,3850405.768,Others,5,4
913,徐老大胡辣汤,113.674331,34.760253,744876.1942,3851257.273,Others,5,4
914,老马逍遥镇牛肉胡辣汤,113.664691,34.766734,743974.1917,3851953.054,Xiaoyaozhen,10,7
915,王红彪特色笼蒸豆腐脑胡辣汤,113.655757,34.770454,743145.0841,3852344.216,Others,5,4
916,朱东升胡辣汤店,113.661467,34.774369,743656.4708,3852792.545,Others,5,4
917,威振胡辣汤,113.659578,34.779803,743467.5114,3853391.018,Others,5,4
918,老李胡辣汤,113.658609,34.779071,743380.9349,3853307.431,Others,5,4
919,胡辣汤,113.666717,34.77138,744146.0405,3852473.588,Others,5,4
920,舒畅胡辣汤,113.670031,34.776832,744433.4313,3853086.711,Others,5,4
921,高老二胡辣汤,113.669817,34.776332,744415.3111,3853030.701,Others,5,4
922,方中山胡辣汤,113.67129,34.78014,744538.9482,3853456.897,Fangzhongshan,9,10
923,胡辣汤,113.667634,34.783647,744193.8357,3853837.197,Others,5,4
924,逍遥镇李记牛肉胡辣汤,113.67631,34.784122,744986.8293,3853911.062,Xiaoyaozhen,10,7
925,逍遥镇牛排胡辣汤·中式快餐店,113.675518,34.78363,744915.7675,3853854.527,Xiaoyaozhen,10,7
926,王占方胡辣汤,113.672343,34.78226,744629.1036,3853694.74,Others,5,4
927,刘记逍遥镇胡辣汤,113.672318,34.783834,744622.1633,3853869.36,Xiaoyaozhen,10,7
928,梁记胡辣汤,113.653698,34.780866,742925.98,3853494.737,Others,5,4
929,陈记胡辣汤,113.653749,34.78039,742932.0466,3853442.035,Others,5,4
930,味一方胡辣汤,113.681515,34.77189,745499.6779,3852566.284,Others,5,4
931,金记逍遥镇胡辣汤,113.68712,34.776963,745997.8919,3853143.008,Xiaoyaozhen,10,7
932,舒畅胡辣汤,113.677803,34.777094,745144.3413,3853134.746,Others,5,4
933,王振华胡辣汤牛肉馍,113.67782,34.776219,745148.4885,3853037.681,Others,5,4
934,杨记特味源胡辣汤,113.679299,34.779856,745273.1483,3853444.926,Others,5,4
935,逍遥镇胡辣汤,113.677636,34.777984,745126.4142,3853233.11,Xiaoyaozhen,10,7
936,逍遥镇沈记胡辣汤店,113.690147,34.770357,746294.7231,3852417.301,Xiaoyaozhen,10,7
937,西华伊兰轩胡辣汤,113.699928,34.774771,747177.2745,3852931.212,Others,5,4
938,正宗逍遥镇老沈记胡辣汤,113.698761,34.774946,747069.8862,3852947.76,Xiaoyaozhen,10,7
939,逍遥镇赵老三胡辣汤,113.69778,34.774954,746980.029,3852946.233,Xiaoyaozhen,10,7
940,逍遥镇牛肉胡辣汤,113.70011,34.77778,747184.9581,3853265.599,Xiaoyaozhen,10,7
941,方有味胡辣汤,113.69902,34.780155,747078.059,3853526.492,Others,5,4
942,陈三姐胡辣汤,113.697852,34.783589,746960.8639,3853904.721,Others,5,4
943,春意逍遥镇牛肉胡辣汤,113.697807,34.785901,746949.846,3854161.196,Xiaoyaozhen,10,7
944,方中山胡辣汤,113.699965,34.78726,747143.3769,3854317.332,Fangzhongshan,9,10
945,方一坤野山菌胡辣汤,113.678132,34.78004,745165.7445,3853462.495,Others,5,4
946,逍遥胡辣汤,113.677608,34.78016,745117.4081,3853474.532,Xiaoyaozhen,10,7
947,牛肉胡辣汤,113.687133,34.781056,745986.9216,3853597.279,Others,5,4
948,杨记逍遥镇牛肉胡辣汤,113.687477,34.782114,746015.2762,3853715.538,Xiaoyaozhen,10,7
949,高记逍遥镇胡辣汤,113.689023,34.783787,746151.861,3853904.999,Xiaoyaozhen,10,7
950,胖妮逍遥胡辣汤,113.687154,34.782551,745984.4023,3853763.245,Xiaoyaozhen,10,7
951,煜红喜逍遥镇胡辣汤,113.695951,34.801168,746734.3827,3855850.961,Xiaoyaozhen,10,7
952,逍遥镇平伟胡辣汤,113.701729,34.801468,747262.4281,3855898.486,Xiaoyaozhen,10,7
953,逍遥镇胡辣汤,113.701595,34.805418,747238.3547,3856336.528,Xiaoyaozhen,10,7
954,赵老大胡辣汤,113.698894,34.807467,746984.9879,3856557.27,Others,5,4
955,山西刀削面胡辣汤,113.698914,34.807512,746986.6842,3856562.314,Others,5,4
956,尹记牛肉胡辣汤,113.662623,34.798335,743691.7611,3855455.071,Others,5,4
957,逍遥镇优质胡辣汤,113.665245,34.797304,743934.8353,3855347.026,Xiaoyaozhen,10,7
958,清真逍遥镇煜红喜胡辣汤,113.672737,34.795108,744627.2027,3855121.561,Xiaoyaozhen,10,7
959,高群生逍遥胡辣汤,113.674309,34.794633,744772.5247,3855072.681,Xiaoyaozhen,10,7
960,何记豫汤何记豫汤胡辣汤私房拌饭,113.675771,34.796414,744901.1006,3855273.904,Others,5,4
961,清真伊品源胡辣汤,113.670064,34.796211,744379.2315,3855237.456,Others,5,4
962,兴隆逊母口胡辣汤,113.670145,34.797468,744382.9343,3855377.154,Others,5,4
963,逍遥胡辣汤,113.665653,34.797353,743972.0423,3855353.456,Xiaoyaozhen,10,7
964,高掌门逍遥胡辣汤,113.665448,34.797325,743953.3576,3855349.85,Xiaoyaozhen,10,7
965,刘一奇胡辣汤,113.614216,34.770252,739341.4876,3852221.955,Others,5,4
966,回族优质牛肉胡辣汤,113.610477,34.77421,738987.6627,3852652.292,Others,5,4
967,天祥优质胡辣汤,113.611228,34.774758,739054.8512,3852714.896,Others,5,4
968,尚记胡辣汤,113.610412,34.774093,738982.0482,3852639.153,Others,5,4
969,张家优质牛肉胡辣汤,113.606341,34.775921,738603.9924,3852832.333,Others,5,4
970,朱记胡辣汤,113.606315,34.775565,738602.6373,3852792.764,Others,5,4
971,逍遥镇胡辣汤,113.606369,34.775612,738607.4467,3852798.108,Xiaoyaozhen,10,7
972,方一坤野山菌胡辣汤,113.607198,34.779634,738671.7651,3853246.429,Others,5,4
973,老王家逍遥镇胡辣汤,113.608887,34.778496,738829.7019,3853124.155,Xiaoyaozhen,10,7
974,魏家胡辣汤,113.604265,34.779185,738404.496,3853189.628,Others,5,4
975,徐家胡辣汤,113.604434,34.779753,738418.3351,3853253.064,Others,5,4
976,穆府鲜牛肉胡辣汤,113.652318,34.77433,742818.7861,3852766.043,Others,5,4
977,闪老大胡辣汤,113.642689,34.78183,741915.1205,3853575.124,Others,5,4
978,杨家逍遥镇牛肉胡辣汤,113.641064,34.779959,741771.7926,3853363.567,Xiaoyaozhen,10,7
979,陶记胡辣汤,113.647075,34.781785,742316.8527,3853580.713,Others,5,4
980,杨岸业特优滋补胡辣汤,113.650154,34.781045,742600.9476,3853506.029,Others,5,4
981,杨孝业特优滋补胡辣汤,113.650095,34.780868,742596.0639,3853486.243,Others,5,4
982,张记逍遥镇牛肉胡辣汤,113.650123,34.783278,742591.5657,3853753.768,Xiaoyaozhen,10,7
983,邵记牛肉胡辣汤,113.649185,34.782405,742508.2372,3853654.617,Others,5,4
984,老杨家胡辣汤,113.647991,34.784275,742393.4347,3853859.261,Others,5,4
985,张记逍遥镇牛肉胡辣汤,113.649736,34.782613,742558.0793,3853679.032,Xiaoyaozhen,10,7
986,胡二姐逍遥镇胡辣汤,113.643313,34.784718,741963.8152,3853897.133,Xiaoyaozhen,10,7
987,周记逍遥镇优质牛肉胡辣汤,113.641232,34.786151,741769.0916,3854051.149,Xiaoyaozhen,10,7
988,方中山胡辣汤,113.63735,34.792497,741395.1492,3854746.068,Fangzhongshan,9,10
989,逍遥镇俊发祥胡辣汤,113.639802,34.795861,741609.8129,3855125.302,Xiaoyaozhen,10,7
990,逍遥老穆胡辣汤总店,113.6402,34.795065,741648.5738,3855037.922,Xiaoyaozhen,10,7
991,逍遥镇高老大牛排胡辣汤,113.64579,34.795059,742160.3528,3855050.737,Xiaoyaozhen,10,7
992,刘记逍遥镇胡辣汤,113.652446,34.803324,742745.4561,3855984.065,Xiaoyaozhen,10,7
993,顺城老店胡辣汤豆沫,113.648716,34.805078,742398.8701,3856169.7,Others,5,4
994,逍遥镇方记亚南胡辣汤,113.65053,34.805098,742564.8624,3856176.305,Xiaoyaozhen,10,7
995,逍遥镇方记恒馨胡辣汤店,113.650561,34.805244,742567.2719,3856192.583,Xiaoyaozhen,10,7
996,逍遥镇胡辣汤·有家米皮,113.648595,34.808674,742377.256,3856568.487,Xiaoyaozhen,10,7
997,逍遥镇牛肉胡辣汤,113.648594,34.8087,742377.0883,3856571.37,Xiaoyaozhen,10,7
998,逍遥镇胡辣汤豆沫馆,113.643261,34.806023,741896.7644,3856261.402,Xiaoyaozhen,10,7
999,方中山胡辣汤,113.644116,34.804806,741978.589,3856128.404,Fangzhongshan,9,10
1000,逍遥镇方永刚胡辣汤,113.644121,34.808479,741968.3014,3856536.041,Xiaoyaozhen,10,7
1001,逍遥镇清真杨记胡辣汤,113.642103,34.808782,741782.6988,3856564.799,Xiaoyaozhen,10,7
1002,杨师傅牛肉胡辣汤,113.63008,34.80081,740705.3815,3855651.158,Others,5,4
1003,白老大牛排胡辣汤,113.631534,34.802566,740833.3727,3855849.526,Others,5,4
1004,胡辣汤,113.630516,34.80375,740736.7385,3855978.48,Others,5,4
1005,逍遥镇郑洪伟胡辣汤,113.638766,34.804121,741490.8572,3856039.488,Xiaoyaozhen,10,7
1006,方大同胡辣汤,113.639934,34.808815,741584.0647,3856563.234,Others,5,4
1007,胡辣汤博颂,113.640237,34.808756,741611.9719,3856557.416,Others,5,4
1008,正宗北舞渡桥头炖肉胡辣汤,113.524958,34.767339,731175.8088,3851689.491,Beiwudu,8,6
1009,逍遥镇优质胡辣汤,113.594525,34.733459,737643.7339,3848092.03,Xiaoyaozhen,10,7
1010,上品胡辣汤,113.594666,34.734902,737652.517,3848252.502,Others,5,4
1011,安康逍遥胡辣汤豆沫馆,113.594563,34.735502,737641.3615,3848318.844,Xiaoyaozhen,10,7
1012,方一坤野山菌胡辣汤,113.599517,34.740077,738082.0834,3848838.29,Others,5,4
1013,老郑家胡辣汤,113.599829,34.752235,738075.7478,3850188.279,Others,5,4
1014,方中山胡辣汤,113.60316,34.751222,738383.767,3850083.762,Fangzhongshan,9,10
1015,穆彦华逍遥镇胡辣汤,113.602701,34.752428,738338.256,3850216.51,Xiaoyaozhen,10,7
1016,逍遥镇拜记胡辣汤豆沫,113.603155,34.750869,738384.3242,3850044.576,Xiaoyaozhen,10,7
1017,方一坤野山菌胡辣汤,113.60312,34.753014,738374.9492,3850282.537,Others,5,4
1018,逍遥镇穆记胡辣汤,113.602793,34.752378,738346.8266,3850211.18,Xiaoyaozhen,10,7
1019,霸气高老大牛排胡辣汤,113.603766,34.757756,738420.4767,3850810.322,Others,5,4
1020,魏家胡辣汤,113.600845,34.777291,738096.7863,3852971.318,Others,5,4
1021,陈三胡辣汤,113.600754,34.775681,738093.0828,3852792.43,Others,5,4
1022,谢师傅逍遥镇胡辣汤,113.600747,34.775763,738092.206,3852801.513,Xiaoyaozhen,10,7
1023,姐弟俩胡辣汤饺子店,113.601555,34.775621,738166.6028,3852787.672,Others,5,4
1024,周口党记胡辣汤,113.601644,34.775693,738174.5454,3852795.873,Others,5,4
1025,高老大一品胡辣汤,113.603251,34.778161,738314.5953,3853073.579,Others,5,4
1026,逍遥镇胡辣汤料批发部,113.598614,34.777882,737890.8001,3853031.615,Xiaoyaozhen,10,7
1027,小喜哥牛肉胡辣汤,113.602797,34.782239,738261.2883,3853525.065,Others,5,4
1028,全聚民牛排胡辣汤,113.602791,34.782388,738260.3101,3853541.586,Others,5,4
1029,胡辣汤,113.603768,34.798321,738303.8864,3855312.104,Others,5,4
1030,逍遥镇胡辣汤,113.602471,34.79866,738184.1769,3855346.645,Xiaoyaozhen,10,7
1031,高山胡辣汤,113.558313,34.796503,734147.8864,3855003.302,Others,5,4
1032,牛肉胡辣汤,113.559155,34.798086,734220.487,3855180.942,Others,5,4
1033,王记逍遥镇胡辣汤,113.563326,34.805124,734582.3605,3855971.739,Xiaoyaozhen,10,7
1034,聚山胡辣汤,113.566482,34.804931,734871.7971,3855957.707,Others,5,4
1035,小钱家胡辣汤,113.565133,34.806418,734744.0944,3856119.57,Others,5,4
1036,杨府合流镇胡辣汤,113.564274,34.805185,734668.9638,3855980.726,Others,5,4
1037,逍遥镇胡辣汤,113.54401,34.805092,732814.3405,3855923.177,Xiaoyaozhen,10,7
1038,小喜哥牛肉胡辣汤,113.546853,34.804779,733075.4589,3855895.045,Others,5,4
1039,逍遥镇胡辣汤,113.553169,34.819515,733611.9723,3857545.081,Xiaoyaozhen,10,7
1040,方一坤野山菌胡辣汤,113.551687,34.821041,733472.0302,3857710.978,Others,5,4
1041,赵老三逍遥胡辣汤,113.541644,34.829513,732529.0794,3858627.821,Xiaoyaozhen,10,7
1042,方一坤野山菌胡辣汤,113.561255,34.819605,734351.7493,3857573.941,Others,5,4
1043,逍遥镇胡辣汤,113.565314,34.819541,734723.4116,3857576.335,Xiaoyaozhen,10,7
1044,王爱虹胡辣汤,113.562896,34.82182,734495.6512,3857823.591,Others,5,4
1045,郑向荣炖肉胡辣汤,113.629377,34.810339,740613.3064,3856706.981,Others,5,4
1046,胡辣汤,113.630053,34.809163,740678.6045,3856578.093,Others,5,4
1047,杨孝业特优滋补胡辣汤,113.630611,34.809401,740728.9875,3856605.846,Others,5,4
1048,豫王府逍遥镇珍品胡辣汤丰乐路店,113.630426,34.809644,740711.3465,3856632.369,Xiaoyaozhen,10,7
1049,刘记胡辣汤包子铺,113.633353,34.810286,740977.393,3856710.648,Others,5,4
1050,逍遥镇珍品胡辣汤,113.636252,34.816085,741225.8282,3857361.182,Xiaoyaozhen,10,7
1051,逍遥镇李记胡辣汤,113.633642,34.816781,740984.9169,3857432.147,Xiaoyaozhen,10,7
1052,逍遥镇红福胡辣汤,113.643918,34.819197,741918.3611,3857725.02,Xiaoyaozhen,10,7
1053,郑州方江伟胡辣汤总店,113.645141,34.819682,742028.8735,3857781.797,Others,5,4
1054,胡辣汤,113.64658,34.823024,742150.7842,3858156.163,Others,5,4
1055,逍遥镇于记胡辣汤,113.640991,34.823357,741638.3141,3858179.632,Xiaoyaozhen,10,7
1056,方一坤野山菌胡辣汤,113.642542,34.823121,741780.9488,3858157.181,Others,5,4
1057,曹文中正宗逍遥镇优质胡辣汤,113.648849,34.823088,742358.2522,3858168.75,Xiaoyaozhen,10,7
1058,胡辣王优质胡辣汤,113.647119,34.825367,742193.2475,3858417.489,Others,5,4
1059,杨姐胡辣汤慢熬粥,113.64887,34.824815,742355.1105,3858360.461,Others,5,4
1060,逍遥魂胡辣汤,113.647688,34.82769,742238.5115,3858676.668,Xiaoyaozhen,10,7
1061,煜红喜逍遥镇胡辣汤,113.644066,34.825098,741914.6367,3858380.263,Xiaoyaozhen,10,7
1062,春意原逍遥镇牛肉胡辣汤,113.644686,34.827822,741963.402,3858684.066,Xiaoyaozhen,10,7
1063,曹文明正宗逍遥镇胡辣汤,113.650004,34.83035,742442.653,3858977.473,Xiaoyaozhen,10,7
1064,陈红亮胡辣汤,113.649584,34.831649,742400.4082,3859120.619,Others,5,4
1065,齐中杰胡辣汤郑州总店,113.650811,34.839829,742488.6809,3860031.397,Others,5,4
1066,方有良胡辣汤,113.649988,34.84308,742403.8361,3860390.199,Others,5,4
1067,老马逍遥镇优质牛肉胡辣汤,113.652303,34.841932,742619.0223,3860268.398,Xiaoyaozhen,10,7
1068,专业胡辣汤汤料,113.605259,34.835512,738333.1524,3859443.012,Others,5,4
1069,逍遥镇老郑胡辣汤,113.609081,34.83473,738685.1384,3859365.324,Xiaoyaozhen,10,7
1070,张川磨坊专业胡辣汤料,113.606587,34.83581,738453.8092,3859479.243,Others,5,4
1071,李记油饼胡辣汤粥,113.674137,34.825501,744665.4384,3858497.978,Others,5,4
1072,杜永涛老杜家胡辣汤,113.674055,34.825778,744657.1141,3858528.52,Others,5,4
1073,方一坤野山菌胡辣汤,113.673795,34.825664,744633.6573,3858515.233,Others,5,4
1074,李记逍遥镇牛肉胡辣汤豆沫馆,113.656955,34.820791,743106.8575,3857933.459,Xiaoyaozhen,10,7
1075,逍遥镇优质胡辣汤,113.656897,34.821366,743099.8583,3857997.132,Xiaoyaozhen,10,7
1076,纯牛肉胡辣汤,113.6591,34.82235,743298.5822,3858111.68,Others,5,4
1077,吴亚洲胡辣汤,113.658452,34.822222,743239.6541,3858095.902,Others,5,4
1078,老丁家胡辣汤,113.659044,34.82228,743293.6631,3858103.776,Others,5,4
1079,逍遥镇胡辣汤,113.680966,34.818575,745310.9582,3857746.023,Xiaoyaozhen,10,7
1080,王老三逍遥胡辣汤,113.656369,34.832204,743019.6655,3859198.645,Xiaoyaozhen,10,7
1081,逍遥镇胡辣汤,113.644506,34.858614,741856.7514,3862100.9,Xiaoyaozhen,10,7
1082,高老大牛排胡辣汤,113.644458,34.858615,741852.3575,3862100.895,Others,5,4
1083,赵连军胡辣汤,113.797033,34.81611,755941.728,3857762.634,Others,5,4
1084,李老大胡辣汤豆沫馆,113.79507,34.81565,755763.4773,3857706.572,Others,5,4
1085,老杨家逍遥镇胡辣汤,113.724534,34.750019,749505.0743,3850245.104,Xiaoyaozhen,10,7
1086,吾哥专业胡辣汤卤面店,113.7248,34.750028,749529.4132,3850246.764,Others,5,4
1087,方一坤野山菌胡辣汤,113.777001,34.758321,754285.6909,3851298.101,Others,5,4
1088,牛牛牛肉胡辣汤,113.707081,34.775541,747829.9954,3853034.308,Others,5,4
1089,逍遥镇牛肉胡辣汤,113.707526,34.776693,747867.2968,3853163.256,Xiaoyaozhen,10,7
1090,王记胡辣汤,113.641138,34.718682,741957.3724,3846563.368,Others,5,4
1091,清真回族逍遥镇优质胡辣汤,113.642643,34.740589,742031.3531,3848998.174,Xiaoyaozhen,10,7
1092,牛记牛肉胡辣汤,113.60476,34.764549,738491.963,3851566.547,Others,5,4
1093,春意逍遥镇胡辣汤店,113.667607,34.746349,744301.3343,3849697.847,Xiaoyaozhen,10,7
1094,逍遥炖肉胡辣汤,113.682977,34.754603,745684.824,3850651.364,Xiaoyaozhen,10,7
1095,辣辣刘胡辣汤,113.68327,34.754687,745711.4123,3850661.403,Others,5,4
1096,展记优质胡辣汤,113.681033,34.754696,745506.4872,3850656.93,Others,5,4
1097,邓记牛肉胡辣汤,113.669102,34.757065,744406.6798,3850890.731,Others,5,4
1098,方金义牛肉胡辣汤,113.667875,34.758334,744290.5549,3851028.577,Others,5,4
1099,何记豫汤胡辣汤私房拌饭,113.67963,34.793716,745262.3845,3854983.91,Others,5,4
1100,清真合顺合肉丸胡辣汤,113.665427,34.795459,743956.9367,3855142.712,Others,5,4
1101,何记豫汤胡辣汤私房拌饭,113.642752,34.716611,742111.3116,3846337.421,Others,5,4
